datetime,city,state,country,shape,duration (seconds),duration (hours/min),comments,date posted,latitude,longitude
10/10/1949 20:30,san marcos,tx,us,cylinder,2700,45 minutes,This event took place in early fall around 1949-50. It occurred after a Boy Scout meeting in the Baptist Church. The Baptist Church sit,4/27/2004,29.8831,-97.9411
10/10/1949 21:00,lackland afb,tx,,light,7200,1-2 hrs,1949 Lackland AFB&#44 TX.  Lights racing across the sky &amp; making 90 degree turns on a dime.,12/16/2005,29.3842,-98.5811
10/10/1955 17:00,chester (uk/england),,gb,circle,20,20 seconds,Green/Orange circular disc over Chester&#44 England,1/21/2008,53.2,-2.9167
10/10/1956 21:00,edna,tx,us,circle,20,1/2 hour,My older brother and twin sister were leaving the only Edna theater at about 9 PM&#44...we had our bikes and I took a different route home,1/17/2004,28.9783,-96.6458
10/10/1960 20:00,kaneohe,hi,us,light,900,15 minutes,AS a Marine 1st Lt. flying an FJ4B fighter/attack aircraft on a solo night exercise&#44 I was at 50&#44000&#39 in a &quot;clean&quot; aircraft (no ordinan,1/22/2004,21.4181,-157.8036
10/10/1961 19:00,bristol,tn,us,sphere,300,5 minutes,My father is now 89 my brother 52 the girl with us now 51 myself 49 and the other fellow which worked with my father if he&#39s still livi,4/27/2007,36.595,-82.1889
10/10/1965 21:00,penarth (uk/wales),,gb,circle,180,about 3 mins,penarth uk  circle  3mins  stayed 30ft above me for 3 mins slowly moved of and then with the blink of the eye the speed was unreal,2/14/2006,51.4347,-3.18
10/10/1965 23:45,norwalk,ct,us,disk,1200,20 minutes,A bright orange color changing to reddish color disk/saucer was observed hovering above power transmission lines.,10/2/1999,41.1175,-73.4083
10/10/1966 20:00,pell city,al,us,disk,180,3  minutes,Strobe Lighted disk shape object observed close&#44 at low speeds&#44 and low altitude in Oct 1966 in Pell City Alabama,3/19/2009,33.5861,-86.2861
10/10/1966 21:00,live oak,fl,us,disk,120,several minutes,Saucer zaps energy from powerline as my pregnant mother receives mental signals not to pass info,5/11/2005,30.2947,-82.9842
10/10/1968 13:00,hawthorne,ca,us,circle,300,5 min.,ROUND &#44 ORANGE &#44 WITH WHAT I WOULD SAY WAS POLISHED METAL OF SOME KIND AROUND THE EDGES .,10/31/2003,33.9164,-118.3517
10/10/1968 19:00,brevard,nc,us,fireball,180,3 minutes,silent red /orange mass of energy floated by three of us in western North Carolina in the 60s,6/12/2008,35.2333,-82.7344
10/10/1970 16:00,bellmore,ny,us,disk,1800,30 min.,silver disc seen by family and neighbors,5/11/2000,40.6686,-73.5275
10/10/1970 19:00,manchester,ky,us,unknown,180,3 minutes,Slow moving&#44 silent craft accelerated at an unbelievable angle and speed.,2/14/2008,37.1536,-83.7619
10/10/1971 21:00,lexington,nc,us,oval,30,30 seconds,green oval shaped light over my local church&#44power lines down..,2/14/2010,35.8239,-80.2536
10/10/1972 19:00,harlan county,ky,us,circle,1200,20minutes,On october 10&#44 1972 myself&#44my 5yrs.daughter&#442 neices and 2 nephews were playing tag in the back yard .When we looked over on the ridge,9/15/2005,36.8431,-83.3219
10/10/1972 22:30,west bloomfield,mi,us,disk,120,2 minutes,The UFO was so close&#44 my battery in the car went to zero amps&#44 stalling the engine&#44 turning off my lights and radio.,8/14/2007,42.5378,-83.2331
10/10/1973 19:00,niantic,ct,us,disk,1800,20-30 min,Oh&#44 what a night &#33  Two (2) saucer-shaped&#44 glowing green objects and one (1) brilliantly glowing sphere gliding over the lake.,9/24/2003,41.3253,-72.1936
10/10/1973 23:00,bermuda nas,,,light,20,20 sec.,saw fast moving blip on the radar scope thin went outside and saw it again.,1/11/2002,32.3642,-64.6786
10/10/1974 19:30,hudson,ma,us,other,2700,45 minutes,Not sure of the eact month or year of this sighting but it was in the fall of 74 or 75. Was walking home around dusk and saw a bright l,8/10/1999,42.3917,-71.5667
10/10/1974 21:30,cardiff (uk/wales),,gb,disk,1200,20 minutes,back in 1974 I was 19 at the time and  lived in a suburb of Cardiff Wales UK called Ely&#44 and in the distance there was a wood called Ca,2/1/2007,51.5,-3.2
10/10/1974 23:00,hudson,ks,us,light,1200,one hour?,The light chased us.,7/25/2004,38.1056,-98.6597
10/10/1975 17:00,north charleston,sc,us,light,360,5-6 minutes,Several Flashing UFO lights over Charleston Naval Base in S.C.,2/14/2008,32.8544,-79.975
10/10/1976 20:30,washougal,wa,us,oval,60,1 minute,Three extremely large lights hanging above nearby trees.,2/7/2014,45.5828,-122.3522
10/10/1976 22:00,stoke mandeville (uk/england),,gb,cigar,3,3 seconds,White object over Buckinghamshire UK.,12/12/2009,51.7833,-0.7833
10/10/1977 12:00,san antonio,tx,us,other,30,30 seconds,i was about six or seven and my family and me were sitting next to a window at home eating when a type of dark ball hit the screen wind,2/24/2005,29.4239,-98.4933
10/10/1977 22:00,louisville,ky,us,light,30,approx: 30 seconds,HBCCUFO CANADIAN REPORT:  Pilot Sighting Of Unusual Light.,3/17/2004,38.2542,-85.7594
10/10/1978 2:00,elmont,ny,us,rectangle,300,5min,A memory I will never forget that happened meny years ago.,2/1/2007,40.7008,-73.7133
10/10/1979 0:00,poughkeepsie,ny,us,chevron,900,15 minutes,1/4 moon-like&#44  its &#39chord&#39 or flat side parallel to horizon&#44  bright orange-red glow&#44  completely silent&#44 no features.,4/16/2005,41.7003,-73.9214
10/10/1979 22:00,saddle lake (canada),ab,,triangle,270,4.5 or more min.,Lights far above&#44  that glance; then flee from the celestrialhavens&#44 only to appear again.,1/19/2005,53.9706,-111.6899
10/10/1979 22:00,san diego,ca,us,oval,180,3 minutes,My 2nd UFO sighting&#44 October 1979,8/5/2001,32.7153,-117.1564
10/10/1979 22:00,security,co,us,unknown,1800,30mins.,very low clouds all different colors&#44search lights were seen shining down out of the clouds on the houses and streets. this event was s,1/28/1999,38.7583,-104.7425
10/10/1980 19:00,houston,tx,us,sphere,180,3 min,Sphere&#44 No lights&#44  moving through neighborhoods above tree tops&#44 over busy streets in Houston in 1980.,4/16/2005,29.7631,-95.3631
10/10/1980 22:00,dallas,tx,us,unknown,300,5 minutes,Strange shape shifting craft of pure light energy.,10/28/2002,32.7833,-96.8
10/10/1980 23:30,manchester,nh,us,light,300,3 to 5 min,A red glowing sphere stopped and watched me.,11/21/2010,42.9956,-71.4553
10/10/1982 7:00,gisborne (new zealand),,,disk,120,2min,gisborne nz 1982 wainui beach to sponge bay,1/11/2002,-38.6623,178.0176
10/10/1984 5:00,houston,tx,us,circle,60,1 minute,2 experience with unkown,4/18/2012,29.7631,-95.3631
10/10/1984 12:00,traverse city,mi,us,other,120,couple minutes,translucent football seen over city airport,10/7/2003,44.7631,-85.6206
10/10/1984 22:00,white plains,ny,us,formation,20,15-20 seconds,Saw a hugh object in sky with lights intermittently placed not making any noise traveling north in the night sky.It had no real identif,8/10/1999,41.0339,-73.7633
10/10/1985 20:25,leeds (uk/england),,gb,triangle,600,10min,three light in the sky that led to a big black silent triangle shaped craft.,3/4/2003,53.8,-1.5833
10/10/1986 20:00,holmes/pawling,ny,,chevron,180,3 minutes,Football Field Sized Chevron with bright white lights on front&#44 moving slowly with absolutely no sound,10/8/2007,41.5234,-73.6468
10/10/1988 18:00,milwaukee,wi,us,triangle,600,10 minutes,A silent black triangular object with no lights moved over us as we walked our dog across a school playground.,8/7/2007,43.0389,-87.9064
10/10/1988 21:00,new gloucester,me,us,unknown,120,few minutes,I&#39m still afraid to look at the sky at night.,1/10/2009,43.9628,-70.2831
10/10/1988 22:00,boulder,co,us,light,60,1 minute,Three Stars Begin to Move Randomly&#44 Stop&#44 Change Direction&#44 Move Again&#44 And Then Vanish,7/16/2006,40.015,-105.27
10/10/1988 22:45,seattle (ballard area),wa,us,unknown,2,2 sec.,Two adult witnesses are stunned by the sound of an object that streaks above the home they are in.,4/27/2004,47.6064,-122.3308
10/10/1989 0:00,calabasas,ca,us,disk,300,approx 5 min,Unidentified object on Mulholland Highway.,12/14/2004,34.1578,-118.6375
10/10/1989 21:00,centralia,wa,us,triangle,60,1 minute,A huge triangularly shaped silent object that blotted out 25 degrees of the sky&#44 lighted by four glowing points.,4/27/2004,46.7164,-122.9531
10/10/1989 21:00,kranklin,ky,,triangle,180,3min,Triangle seen in franklin Ky - october 1989,5/11/2005,36.7223,-86.5772
10/10/1990 21:00,ashburn,ga,us,triangle,120,2 minutes,Translucent Craft that makes No Sound While Moving,10/8/2007,31.7058,-83.6533
10/10/1991 22:00,frisco,nc,us,unknown,1800,30 minutes,A friend and myself were standing on the shore of the Pamlico sound as we observed 4 objects moving in up and down motions for about 30,1/28/1999,35.235,-75.6289
10/10/1991 22:00,harrisburg,pa,us,triangle,600,10 minutes,We observed 3 triangular shaped high speed objects&#33,5/9/2003,40.2736,-76.8847
10/10/1992 17:00,panama city,fl,us,formation,3600,1 hour(?),During a road trip to Panama City a friend and I witnessed a pair of luminous light formations appear and dissappear over the Gulf.,1/28/1999,30.1586,-85.6603
10/10/1992 18:00,stafford,tx,us,unknown,10,10 seconds,A man emerges from a beam of light that shines on a grassy field at night and he runs towards the Texas Instruments parking lot.,4/18/2012,29.6158,-95.5575
10/10/1992 20:15,seymour,tn,us,cigar,60,1min. 39s,Stationary Elongated UFO 200ft above vacant field with city lights on bottom,10/31/2008,35.8906,-83.7247
10/10/1992 22:00,weatherford,tx,us,unknown,30,30 seconds,Black or dark grey.  Too big&#44 too low&#44 too slow&#44 too quiet&#44 for a normal aircraft.,9/2/2005,32.7592,-97.7969
10/10/1993 3:00,zlatoust (russia),,,sphere,1200,20 minutes,I woke up at night and looked out the window near my bed. There was a huge sphere of shining light in front of our nine floor apartment,12/14/2004,55.1833,59.65
10/10/1993 22:00,peoria,il,us,light,8,8 seconds,Light over Peoria&#44 IL that moves slowly&#44 stops in mid-air&#44 hovers&#44 changes colors&#44 shoots in opposite direction and disappears.,10/11/2005,40.6936,-89.5889
10/10/1993 23:00,carthage,tn,us,other,60,less than 1 min,1 object with green and red lights,3/21/2003,36.2522,-85.9517
10/10/1994 15:00,mercedies,tx,,cigar,3600,1 hour,ufo chased by fighter jet over Rio Grande Valley. Seen on news,12/12/2011,26.1498,-97.9136
10/10/1994 18:30,burnt hills,ny,us,rectangle,120,2 minutes,Giant rectangular craft (resembling an upside-down aircraft carrier) over highway near Saratoga&#44 NY.,10/23/2013,42.9097,-73.8956
10/10/1994 22:00,pinebergen,ar,us,light,5,5 seconds,Round&#44 bright&#44 low flying object silently speeds West of Arkansas town at 11:30pm&#44 10/10/94.,2/18/2001,34.1028,-91.9922
10/10/1994 23:00,toronto (greater toronto area) (canada),on,ca,sphere,3600,~1 hour,Large rusty sphere,7/3/2013,43.6667,-79.4167
10/10/1995 19:45,milwaukee,wi,us,,120,2 min.,Man  on Hwy 43 SW of Milwaukee sees large&#44 bright blue light streak by his car&#44 descend&#44 turn&#44 cross road ahead&#44 strobe. Bizarre&#33,11/2/1999,43.0389,-87.9064
10/10/1995 22:40,oakland,ca,us,,60,1 minute,Woman repts.  bright light in NW sky&#44 suddenly approaches her&#44 flies slowly overhead.  Swept wings&#44 2 blurry lights either side.,11/2/1999,37.8044,-122.2697
10/10/1996 3:20,higginsville,mo,us,triangle,3,3sec,illuminated triangular craft&#44 flying at high speed from South to North,2/16/2000,39.0725,-93.7169
10/10/1996 20:00,lake macquarie (nsw&#44 australia),,,light,300,5 min,RED LIGHT WITH OTHER RED FLASHING LIGHT&#44 ONE OBJECT,5/24/1999,-33.0934,151.589
10/10/1996 22:00,charleston,sc,us,light,300,5 min,Flashing object above Charleston&#44 SC,11/26/2003,32.7764,-79.9311
10/10/1996 22:30,monroe county,oh,us,cylinder,60,1 minute,Looked like it went through the hillside,7/8/2004,39.4403,-84.3622
10/10/1997 16:00,connersville,in,us,delta,14400,4 hours,3 differants types &#44 cluster &#44delta &#44 and one in a 3 pointed star design . followed it for six miles .,1/28/1999,39.6411,-85.1411
10/10/1997 17:00,mesa,az,us,sphere,30,30 seconds,A small dark purple quad-thruster craft hovering 200-300 feet in the sky. 500 Lights On Object0: Yes,2/14/2008,33.4222,-111.8219
10/10/1997 20:00,bonaire,ga,us,triangle,300,<5 minutes,Triangular Object Sighted at Very Close Range,2/1/2007,32.5436,-83.5961
10/10/1997 21:00,austin,mn,us,other,3600,1-hour,i was traveling northbound on state highway 105 approximately 8 miles south of Austin MN when an object came down directly above my car,1/28/1999,43.6667,-92.9744
10/10/1998 2:30,hollywood,ca,us,changing,300,5 minutes,I was standing outside on Sunset Blvd. at Vine and looked straight up which I normally do not do. I saw three bright white lights in a,11/1/1998,34.0983,-118.3258
10/10/1998 3:30,phoenix (north part),az,us,fireball,15,10 to 15 sec,bright green moving north to north east. it was bright green and kinda clear. quite fast too.,2/16/1999,33.4483,-112.0733
10/10/1998 13:15,elgin,il,us,cylinder,1800,30 +/- min,While looking up at sky I noticed a bright light hovering above the sky. then I noticed a jet airliner traveling in the same area and I,11/1/1998,42.0372,-88.2811
10/10/1998 17:30,las vegas,nv,us,cigar,600,10 minutes,White&#44 vertical cigar shape floating around in the eastern sky.,11/1/1998,36.175,-115.1364
10/10/1998 17:30,las vegas,nv,us,circle,2700,45min.,Ufo sighting in las vegas near Area51,8/30/1999,36.175,-115.1364
10/10/1998 20:30,nyc/westchester area,ny,,triangle,60,< 1 min,Lights over NYC,10/30/2006,40.936,-73.9017
10/10/1998 20:30,spokane (about 30 miles sw of&#44i-90&#44 maybe mm 254),wa,us,triangle,600,10 minutes,Dark boomerange object seen for ten minutes hovering over the freeway with a bright light out the front that lit up the fields. No jet,8/5/2001,47.6589,-117.425
10/10/1998 20:50,mooresville,nc,us,light,2,2 seconds,Star gazing in back yard with telescope and binos. Saw shooting star and an oblong shape of light.,11/1/1998,35.5847,-80.8103
10/10/1998 22:30,st. john&#39s (canada),nf,ca,egg,7200,2 hours,Started off as 3 points of intense yellow light in triangle formation - then grew larger - it becage a single egg shape - VERY bright.,12/2/2000,47.55,-52.6667
10/10/1998 23:50,delano,tn,us,fireball,15,15 seconds,I came home from work one night and I seen a bright fire like ball go across the top ofthe mountain and it was going fast then it stopp,3/21/2003,35.265,-84.5533
10/10/1999 0:01,martinez,ca,us,changing,3600,1 hour,Bright objects&#44 red and green flashing lights (and a diffuse white light off to one side of the larger of the two objects)&#44 about 30 de,10/19/1999,38.0194,-122.1331
10/10/1999 4:00,kansas city,ks,us,unknown,600,5-10 min.,Orange object over city.,10/19/1999,39.1142,-94.6272
10/10/1999 6:00,dallas,tx,us,other,10,10 seconds,group of   twinkling lights at high altitude,11/20/2001,32.7833,-96.8
10/10/1999 11:00,san diego,ca,us,fireball,3600,1 hour,At 10:45 in the morning&#44 my father and I noticed a small stationary object in the sky.,10/19/1999,32.7153,-117.1564
10/10/1999 12:40,kennewick,wa,us,sphere,45,45 secs,Standing outside saying goodby to family members and pointing to Chem-Trails,10/19/1999,46.2114,-119.1361
10/10/1999 20:35,hayward,ca,us,circle,90,60-90 sec,Many different colored glowing  objects,11/20/2001,37.6689,-122.0797
10/10/1999 21:00,rachel,nv,us,light,10800,3 hours,Bright lights with incredible agility seen from mailbox at Area 51 on UFO highway in Nevada for several hourse.,5/24/2005,37.6447,-115.7428
10/10/1999 21:30,humphrey,ne,us,sphere,300,5 min,Object moving erratically in sky stopped by spot light,2/14/2006,41.6917,-97.4842
10/10/1999 22:30,casey key (north end of),fl,,triangle,120,several minutes,A large trianglual shaped craft flew from horizon to horizon as observed from the stern deck of a motor vessel,9/19/2002,27.1501,-82.4807
10/10/1999 22:30,elgin,or,us,chevron,240,4 minutes,Object silently traveled north -northwest. It was V shaped with five orange lights on the perimeter and one white ligh in the center of,10/19/1999,45.565,-117.9164
10/10/1999 23:45,lewiston,mi,us,oval,2700,45 minutes,Oval shaped with lights all around it in a haze with several smaller lights flying all around it.,10/19/1999,44.8839,-84.3056
10/10/2000 3:00,perryville,mo,us,oval,180,3 minutes,The craft was big&#44 orange&#44 and oval shaped.,12/2/2000,37.7242,-89.8611
10/10/2000 6:15,boynton beach,fl,us,other,10,10 seconds,Unusual light formation moving extremely fast across the sky.,12/2/2000,26.525,-80.0667
10/10/2000 7:30,victoria (canada),bc,ca,cylinder,30,30seconds,Smooth Shiny Cylinder,12/2/2000,46.2167,-63.4833
10/10/2000 16:00,jueanu,wi,,triangle,45,45 seconds,5 bight light V shaped,12/2/2000,43.4056,-88.7051
10/10/2000 20:20,valley park area of st. louis,mo,,oval,15,15 seconds,Driving on Hyw.141 at Hyw. 44 and going East&#44 I witnessed to my right a glowing orb of light streak horizontally from East to West at a,12/2/2000,38.627,-90.1994
10/10/2000 20:30,brinktown,mo,us,light,1800,30 min.,3 bright golden lights moving independently above the tree line flaring and fading intermittently for approx. 15 min.,12/2/2000,38.1267,-92.0844
10/10/2000 21:30,florence,ky,us,light,5,4-5 seconds,Two objects traveling side by side pass over&#44 as one begins to zig&#44 zag it&#39s path.,12/2/2000,38.9989,-84.6267
10/10/2000 21:30,seattle (west),wa,us,unknown,10,10 sec,Dark object in the shape of a (4) after dusk in West Seattle,2/11/2003,47.6064,-122.3308
10/10/2000 22:00,port orchard,wa,us,diamond,60,1min,One night my window started to flash,5/12/2009,47.5406,-122.635
10/10/2001 3:00,rockwell city,ia,us,triangle,240,4 min.s,Large&#44silent&#44slow&#44low to the ground dull-black Triangle UFO with round red lights at it&#39s corners that were off .I drew it.,7/1/2002,42.3953,-94.6336
10/10/2001 4:33,sydney (nsw&#44 australia),,au,formation,180,3 minutes,formation and impact,11/20/2001,-33.8615,151.2055
10/10/2001 20:10,vancouver (canada),bc,ca,other,300,+5 minutes,I observed an green object significantly above a house with the address ((deleted)) Dunbar Street.,5/12/2011,49.25,-123.1333
10/10/2001 20:35,hayward,ca,us,circle,120,2/min.,FALLING STAR  STOPS  &#39SHOTS OUT  DOZENS OF RED POINTS OF LIGHT,11/20/2001,37.6689,-122.0797
10/10/2001 21:15,ottumwa,ia,us,rectangle,300,3-5 minutes,We saw a square object at night&#44  which had 2 blue &amp; 2 red lights at corners&#44 hovering in sky above us.,11/20/2001,41.0042,-92.3736
10/10/2001 21:30,fresno,ca,us,changing,900,15 min. apprx,Objects were sighted driving north on Highway 5 in California&#39s central valley after night fall&#44 not far past &quot;Kettleman/Fresno&quot; exit s,11/20/2001,36.7478,-119.7714
10/10/2001 22:00,phoenix,az,us,triangle,60,less then a minute,Triangle shaped craft spotted flying west to east over mid town Phoenix on 10/10/01 at 22:00 hours 4 light dim making no sounellow,11/20/2001,33.4483,-112.0733
10/10/2001 23:00,virginia beach,va,us,triangle,30,30 seconds,shaped like a stealth bomber (boomerang like&#44 but more triangluar) flat-black in color&#44 made a deep humming sound either really low to,7/26/2002,36.8528,-75.9783
10/10/2002 0:01,hayward,wi,us,flash,43,0:43,we saw pure a light that occasionaly split into 3 to 4 different lights.,10/15/2002,46.0131,-91.4844
10/10/2002 2:00,philomath,or,us,unknown,5,about5seconds,i watched on the portland news that the space shuttle would be visiable and went to philomath oregon to what was known to be the apple,10/15/2002,44.5403,-123.3664
10/10/2002 4:00,adelaide (pt. wakefield) (south australia),,au,circle,600,10 mins,one light became 3,10/28/2002,-34.9287,138.5986
10/10/2002 6:00,seattle,wa,us,sphere,90,90 seconds,Light falls from sky,10/15/2002,47.6064,-122.3308
10/10/2002 19:45,victoria (canada),bc,ca,unknown,120,2 minutes approx,bright white light with black outline around it moving soundlessly and slowly from north banking east and disappearing upward.,10/15/2002,46.2167,-63.4833
10/10/2002 20:30,cincinnati,oh,us,other,1800,30 minutes,Large octagon blue lights on rim red center light hovers over downtown Cincinnati thursday October 10.,10/15/2002,39.1619,-84.4569
10/10/2002 21:00,portland,or,us,circle,120,2min,The LIGHT is the TRUTH&#33,12/16/2005,45.5236,-122.675
10/10/2003 9:00,new buffulo,mi,,light,120,2 minute,Craft that suddenly vanishes and another one that shows up and does strange things at high speeds,5/24/2005,41.7939,-86.7439
10/10/2003 12:00,alhambra,ca,us,oval,300,5 min,3 Black ovals in the sky and a floating movie camera,1/17/2004,34.0953,-118.1261
10/10/2003 18:00,indianapolis,in,us,sphere,1800,30 minutes,Sphere shape object with flashing bright white lights,10/15/2003,39.7683,-86.1581
10/10/2003 19:15,centreville,va,us,other,600,10 minutes,Aliens check out local high school football game.,10/15/2003,38.8403,-77.4292
10/10/2003 20:05,grand view,id,us,light,15,12-15 seconds,Bright light above Mt. Home AFB,10/15/2003,42.9897,-116.0925
10/10/2003 20:25,temperance,mi,us,oval,18000,over 5 hours,pulsating green white and red object in the northwest sky at 45degrees,10/31/2003,41.7792,-83.5689
10/10/2003 21:10,crescent beach,sc,us,formation,37800,1 1/2 hr.,For two consecutive nights&#44 we watched a pattern of lights before we were stunned by a discovery on the beach.,1/17/2004,33.8075,-78.7011
10/10/2003 22:00,albuquerque,nm,us,light,180,3 minutes,Three bright lights that were huddled together than began to seperate and disappeared.,2/1/2007,35.0844,-106.6506
10/10/2003 23:00,bickerton (near wetherby) (uk/england),,,unknown,2700,45minutes,two bright&#44 but fuzzy lights going in a hovering circle about 200 yards of the ground&#44 with a grey cloud above them,10/15/2003,53.0709,-2.7365
10/10/2003 23:25,gleason,wi,us,sphere,1800,30min,UFO Contact&#44 Amazing close sighting,9/2/2005,45.3089,-89.4964
10/10/2004 2:50,mahwah,nj,us,triangle,180,2 - 3 minutes,Triangle shaped flying&#44 hovering U.F.O. witnessed over Sheraton Hotel in Mahwah&#44 NJ. on 10/10/04.,12/12/2011,41.0886,-74.1442
10/10/2004 3:30,worthington st. forest,nj,,other,2700,45 min,witnessed a large object and an intense red light that illumiated the object.,10/27/2004,40.0583,-74.4057
10/10/2004 3:50,portage la prairie (canada),mb,ca,changing,1200,20minutes,Series of Green Blue Red White lights spherical or triangular formation SE of Portage la Prairie&#44 Manitoba Canada,10/27/2004,49.9667,-98.3
10/10/2004 4:18,terre haute,in,us,sphere,5,5 seconds,silently&#44 it came over my head from behind; as I was laying on my back. About the size of a thumbnail at arms length&#44 was a lite white,10/27/2004,39.4667,-87.4139
10/10/2004 8:30,indianapolis,in,us,oval,15,15 seconds,((NUFORC Note:  Possible sighting of a contrail??  PD)),10/27/2004,39.7683,-86.1581
10/10/2004 9:45,nobel (canada),on,ca,unknown,300,5:00,Floating Red Object,10/27/2004,45.4167,-80.1
10/10/2004 14:00,morgantown,wv,us,circle,10,10 sec,Solid round silver ball passing over at about 3000MSL.,5/24/2005,39.6294,-79.9561
10/10/2004 15:00,berkeley,ca,us,unknown,180,3 minutes,While driving my car in the mid afternoon of a day in the fall of 2004 on HYW 580 East-bound I had just crossed the San Rafael / Richmo,5/24/2005,37.8717,-122.2717
10/10/2004 15:00,rock island,il,us,sphere,3600,1 hour,The sky was clear  and the objects at times appeared to rotate slowly.,10/27/2004,41.5094,-90.5786
10/10/2004 15:20,kedainiai (lithuania),,,oval,240,4min,6 oval light objects very quickly rounded under the dark cloud for a some minutes ((NUFORC Note:  Possible advertising lights??  PD)),10/27/2004,55.2881,23.9577
10/10/2004 19:00,chateauqua,ny,,formation,1200,20 min,4 bright circles in a half rainbow formation with a longer bright strip at the top of the formation,10/27/2004,42.2098,-79.4668
10/10/2004 19:00,ripley,ny,us,circle,900,15 min,7 red/orange stationary objects appeared over Lake Erie on 10/10/04 for 15 minutes and then all disappeared at once.,10/27/2004,42.2669,-79.7108
10/10/2004 21:00,faribault,mn,us,flash,900,1/2 hour,Metor or craft descending then sudden flash of light,10/27/2004,44.295,-93.2686
10/10/2004 21:00,mansfield,oh,us,light,7200,a few hours,Several UFO&#39s&#44 one bigger one flew right over the car.,10/27/2004,40.7583,-82.5156
10/10/2004 22:00,columbia,mo,us,light,60,1 min,A light moved across the sky in a zig zag way then straightened out and went straight out into space in a matter of seconds.,11/28/2007,38.9517,-92.3339
10/10/2004 23:30,gleason,wi,us,sphere,3000,45-50 mins,It was about 9:30PM my friend and I were going to go out deer shining with my step dads truck and my friends spotlight. We left his hou,9/2/2005,45.3089,-89.4964
10/10/2005 7:40,seattle,wa,us,other,60,one + minutes,round symetrical with roundish flat bottom shiny white colored low flying bigger than  a plane.,10/11/2005,47.6064,-122.3308
10/10/2005 9:00,apache junction,az,us,other,30,30 seconds,half-moon shaped objects that just winked out,10/11/2005,33.415,-111.5489
10/10/2005 9:30,north miami beach,fl,us,oval,1800,30 minutes,i sent you an e-mail 2 days ago and really want to be contacted&#44 PLEASE  contact me asap&#44 I&#39m not crazy and nether is my wife&#44 please c,10/20/2005,25.9328,-80.1628
10/10/2005 14:45,los angeles,ca,us,egg,10,10 seconds,Egg UFO over Hollywood Hills and LAX in LOS ANGELES&#44 CA.,10/20/2005,34.0522,-118.2428
10/10/2005 20:00,loretto,pa,us,triangle,300,5 minutes,Dull red flash&#44 Triangular ship&#44 Vocal Noises,10/30/2006,40.5031,-78.6306
10/10/2005 20:00,newtown (uk/wales),,gb,formation,360,5/6 minutes,red/orang lights dancing in the sky.,5/15/2006,52.5167,-3.3
10/10/2005 21:00,lewisburg,tn,us,unknown,240,4 minutes,Like a grouping of balloons with a slight glow to them,12/7/2006,35.4492,-86.7889
10/10/2005 21:30,north miami beach,fl,us,other,3600,60 min,a manta ray shaped object with orange and yellow lights flashing in,10/11/2005,25.9328,-80.1628
10/10/2005 22:08,east wenatchee,wa,us,light,1200,20 min,Strange light over East Wenatchee Washington,10/20/2005,47.4158,-120.2919
10/10/2005 23:00,hendersonville,nc,us,light,600,10 minutes,Last night&#44 October 10&#44 at about 11:00PM for about ten minutes I observed a peculiar point source light in the Eastern sky. It was at a,10/11/2005,35.3186,-82.4611
10/10/2005 23:07,brainerd,mn,us,disk,300,5 min.,A big lighted up silver saucer.,10/30/2006,46.3581,-94.2006
10/10/2006 1:00,pennington,tx,us,diamond,3600,one hour,IN form of diamond with multi colored lights that acted like disco light except one.  theone light was like a brite star and would resp,2/1/2007,31.1911,-95.2353
10/10/2006 5:00,san francisco,ca,us,triangle,600,10 minutes,black triangles were seen flying across the surface of the full moon,10/30/2006,37.775,-122.4183
10/10/2006 12:37,blairsville,ga,us,unknown,10,<10 sec.,Intermittant streak by moon&#44 not seen on photo taken 10 seconds earlier.,10/30/2006,34.8761,-83.9583
10/10/2006 16:00,savannah,tn,us,light,600,10 minutes,weird light that moved in the sky,10/30/2006,35.2247,-88.2492
10/10/2006 16:00,waynesboro,va,us,triangle,600,8-10 minutes,Large...beautiful...and brighter than anything I&#39ve ever seen....How small I have felt since....,10/30/2006,38.0683,-78.8897
10/10/2006 19:00,unsure,ar,,fireball,2,a few seconds,Extreme sound with trails and orange red blue hues to it.  The trails were bright bright white.,12/7/2006,35.2011,-91.8318
10/10/2006 20:00,bray,ok,us,other,360,6 mins,Glowing V Shaped Object flying Low making no sound.,12/12/2009,34.6378,-97.8172
10/10/2006 21:47,plymouth (devonshire) (uk/england),,gb,formation,120,1-2 mins,they were right above me very small almost like minni stars and they were circling round sommothing and came closer and further away an,10/30/2006,50.3964,-4.1386
10/10/2006 22:40,waycross,ga,us,light,120,2 minutes,Redish orange light viewed from Waycross &#44Ga. Moving Northwest and suddenly just goes out.,10/30/2006,31.2133,-82.3542
10/10/2006 22:50,wolfforth,tx,us,disk,300,5 min,Huge aircraft with diagnally aligned white lights moving slowly and loudly through the night.,10/30/2006,33.5058,-102.0086
10/10/2006 23:00,lyndhurst,oh,us,unknown,300,5 minutes,This is a follow up to my Feb. 16th&#44 1995 report.  This past Tuesday&#44 my wife and I AGAIN heard the same loud&#44 rumbling roar that we he,10/30/2006,41.52,-81.4889
10/10/2007 1:00,lebanon,or,us,light,14400,4 hours,Small Orange-White &quot;star&quot; that moves around in circles&#44 up&#44 down&#44 and sideways fast in the night sky,11/28/2007,44.5367,-122.9058
10/10/2007 1:00,stockbridge,ga,us,changing,3600,1 hour,i was abducted,11/28/2007,33.5442,-84.2339
10/10/2007 4:00,denver,co,us,changing,2700,45 minutes+,Huge lighted cluster in the eastern sky.  ((NUFORC Note:  Sighting of Venus.  PD)),11/28/2007,39.7392,-104.9842
10/10/2007 4:30,jacksonville,fl,us,sphere,30,30 seconds,half mile from de saint Jhons River&#44 low flying sphere&#44   at slow speed without noise,3/4/2008,30.3319,-81.6558
10/10/2007 6:00,indio,ca,us,oval,600,10 min.,Observed 2 white clouds of identical shape in clear blue shy with object becoming visible beneath one cloud.,6/9/2009,33.7206,-116.2147
10/10/2007 13:00,owego,ny,us,triangle,10800,3 hours,triangle with 3 llights blinking. 500 Lights On Object0: Yes,11/28/2007,42.1033,-76.2625
10/10/2007 18:33,downingtown,pa,us,circle,120,1 to 1 1/2 minutes,Star-like (but MUCH BRIGHTER AND LARGER) light west of D-town&#44 PA.  Seen against sunset.  ((NUFORC Note:  Contrail??  PD)),11/28/2007,40.0064,-75.7036
10/10/2007 19:00,austin,tx,us,flash,3,3 seconds,pulsing flash recurring at 2 second intervals 3 times along the same trajectory along 90 degrees of sky,11/28/2007,30.2669,-97.7428
10/10/2007 20:10,starrsville (covington),ga,us,sphere,60,appx. 1 minute,MUFON GEORGIA FOLLOW-UP REPORT:  Joint NUFORC-MUFON of Georgia Investigation-Fiery Sphere Shaped Object,6/12/2008,33.5394,-83.8194
10/10/2007 20:24,west palm beach florida,fl,,fireball,180,approx 3 mins,Burning ball across the sky over central/south florida. Strobing effect towards end of the final view of object.,11/28/2007,26.7056,-80.0364
10/10/2007 20:30,conyers,ga,us,unknown,3600,1 hour,Craft seen falling and dissapears into thin air.  ((NUFORC Note:  Missile launch??  We have no explanation for the aircraft.  PD)),11/28/2007,33.6675,-84.0178
10/10/2007 20:55,vero beach,fl,us,unknown,30,30 seconds,Shooting star without red globe burn-out or descent maintains steady Southerly trajectory.  ((NUFORC Note:  Missile launch??  PD)),11/28/2007,27.6383,-80.3975
10/10/2007 21:00,jensen beach,fl,us,oval,120,2 mins,A oval shaped object hovered and shot through the sky with very bright lights and then vanished. 500 Lights On Object0: Yes,11/28/2007,27.2542,-80.23
10/10/2007 21:43,houston,tx,us,formation,35,35 seconds,Large Boomerang formation of lights over Houston&#44 Beltway 8 &amp; Westheimer moving north to south 10/10/07&#44 9:43 PM.,11/28/2007,29.7631,-95.3631
10/10/2007 22:00,duluth,mn,us,light,600,10 minutes,Bright pulsating light over lake superior.,1/21/2008,46.7833,-92.1064
10/10/2007 22:00,fleming,co,us,circle,600,10 minutes,UFO SPOTTED&#44 FLEMING COLORADO,11/28/2007,40.68,-102.8389
10/10/2007 22:00,grove city,pa,us,unknown,3600,1:00:00,Light pattern moving silently through rapid maneuvers over Grove City,1/21/2008,41.1578,-80.0889
10/10/2007 22:00,van alstyne,tx,us,other,4,4 seconds,large mass of tiny lights all clustered together in the shape of a large boomerang over eastern sky in north Texas.,11/28/2007,33.4214,-96.5769
10/10/2007 23:05,northglenn,co,us,triangle,15,15 seconds,Hovering triangular shape seen with flashing lights seen in Colorado,11/28/2007,39.8856,-104.9867
10/10/2007 23:20,stord (norway),,,light,600,10 min,Thise could be an ETV case&#44 but it could also be helicopters or/and airplanes,1/21/2008,59.9002,5.2823
10/10/2008 2:00,london (canada),on,ca,other,120,2 min. approx,C shape with a T front over London ont on Oct 10&#44 2008 on a clear day around 2PM,6/9/2009,42.9833,-81.25
10/10/2008 2:00,north branch,mn,us,light,300,5 min,Lights at night&#44 shining into car and garage and around blinds,10/31/2008,45.5114,-92.98
10/10/2008 2:00,slingerlands,ny,us,circle,240,4 min,Huge&#44 moon size&#44 orange&#44 bright&#44 almost complete circle,10/31/2008,42.6292,-73.865
10/10/2008 4:00,carlin,nv,us,disk,600,10 mins,Ufo sighting in Carlin&#44 NV&#44 at the pilot truck stop. 500 Lights On Object0: Yes,7/19/2010,40.7139,-116.1031
10/10/2008 4:50,evansville,in,us,formation,600,10 minutes+,I saw a huge V-shaped object moving slowly and silently over the roof tops in my neighborhood.,10/31/2008,37.9747,-87.5558
10/10/2008 6:00,albany,ny,us,oval,45,45 seconds,I live Colonie&#44 New York&#44 a suburb of Albany.  I live within 4 miles of the Albany International Airport. Many  takeoff&#8217;s and landings,10/31/2008,42.6525,-73.7567
10/10/2008 10:22,fremont,ca,us,triangle,60,1 minute,I saw a brightly lightes v shaped ufo while driving through fremont&#44ca.,10/31/2008,37.5483,-121.9875
10/10/2008 18:00,yuma,az,us,triangle,900,15 minutes,Carousel in the sky on fire / pixalated triangle over Yuma&#44 AZ,10/10/2011,32.7253,-114.6236
10/10/2008 19:00,south bend,in,us,light,600,10 minutes,Glowing succession of flying objects on the horizon.,10/31/2008,41.6833,-86.25
10/10/2008 20:00,la crescent,mn,us,formation,10,10 seconds,six strange lights in the sky over La Crescent MN,10/31/2008,43.8281,-91.3039
10/10/2008 20:00,moon township,pa,,unknown,120,2 minutes,unknown rectangular shaped aircraft with bright lights seen over Rt. 60 near Pittsburgh International Airport&#44 definitely NOT a plane,10/31/2008,40.517,-80.2213
10/10/2008 20:00,philadelphia,pa,us,oval,60,1 minute,Silent&#44 oval&#44 bright white craft in yard.,7/4/2012,39.9522,-75.1642
10/10/2008 20:00,seattle,wa,us,light,180,3 minutes,Around 8:00 pm? I Went out side and looked up at the stars and I saw a light which I thought was a small faded star  until it started t,10/31/2008,47.6064,-122.3308
10/10/2008 20:40,pueblo,co,us,light,300,5 minutes,In the northwest sky&#44 there were about seven lights moving slowly and flashing in and out if an extremely strange fashion.,10/31/2008,38.2544,-104.6086
10/10/2008 21:30,cincinnati,oh,us,oval,900,15 minutes,12 ovel objects flying east to west orange and red at a slow speed then vanished,10/31/2008,39.1619,-84.4569
10/10/2008 22:00,san diego,ca,us,disk,30,30 seconds,low flying saucer in suburban area.  ((NUFORC Note:  Student report.  PD)),10/31/2008,32.7153,-117.1564
10/10/2008 22:30,madison,wi,us,circle,20,20 secounds,Tanslucent orange/yellow UFO in Madison WI,10/31/2008,43.0731,-89.4011
10/10/2008 23:15,coldwater,oh,us,sphere,60,1 minute,spherical in shape&#44 orange flames coming from the bottom&#44 completely silent&#44 moved fast and also hovered.,10/31/2008,40.4797,-84.6283
10/10/2009 12:00,crested butte,co,us,egg,60,1min,metallic egg shaped craft above crested butte&#44 CO.  Also have seen great amount of activity READ ME&#33,12/12/2009,38.8697,-106.9872
10/10/2009 12:42,tulsa,ok,us,unknown,6,6 seconds,In&#39t see nothing in the park,12/12/2009,36.1539,-95.9925
10/10/2009 16:24,eagar,az,us,unknown,180,2-3 minutes,Second sighting was only 150 feet away.  Observations between two sightings.,12/12/2011,34.1111,-109.2908
10/10/2009 19:30,suffolk,va,us,unknown,900,15 minutes,It looked sort of lime green.  It appeared to have an odd texture.  It had a dimples on its surface.  It was not smooth at all.  It jus,12/12/2009,36.7281,-76.5839
10/10/2009 20:30,anaheim,ca,us,light,300,5 mins,UFO over Disneyland.,12/12/2009,33.8353,-117.9136
10/10/2009 20:45,wilmington,nc,us,light,600,10minutes,Two lights seen with a lighting of something strobe like near the ground.,12/12/2009,34.2256,-77.945
10/10/2009 21:00,leesburg,va,us,disk,300,less than 5 minutes,Two large glowing amber/dark orangish colored circular disks-not a sound-,11/21/2010,39.1156,-77.5639
10/10/2009 23:00,michigan city,in,us,changing,900,15 minutes,black object that seemed to impode into a sphere and vanish&#44 only to reappear in the same shape and move location,12/12/2009,41.7075,-86.895
10/10/2009 23:23,cupertino,ca,us,light,180,3 minutes,Bright red light object made random moves horizontally and floated for a while and then went up vertically.,12/12/2009,37.3231,-122.0311
10/10/2010 1:00,orchard park,ny,us,light,7200,a few hours,Xmas colored rotating lights.  ((NUFORC Note:  Twinkling stars??  PD)),1/5/2011,42.7675,-78.7442
10/10/2010 2:30,harrisburg,pa,us,circle,240,4  minutes,possible UFO sighting,11/21/2010,40.2736,-76.8847
10/10/2010 3:00,euclid,oh,us,circle,180,3 minutes,2 objects blinking red and white&#44 disappeared into the sky&#44 after hovering around sky for 3 minutes.( over lake erie,11/21/2010,41.5931,-81.5269
10/10/2010 8:30,starr,sc,us,formation,600,5-10 mins,Strange orange lights in the night sky,11/21/2010,34.3769,-82.6958
10/10/2010 12:00,greenwich,ct,us,light,240,4 mins,&quot;Star&quot; like objects during clear day light in formation.,11/21/2010,41.0264,-73.6289
10/10/2010 13:00,north charleston,sc,us,light,180,3 minutes,Object(s) visible 3 times at same place in the sky at during day in Chas&#44 SC,7/4/2012,32.8544,-79.975
10/10/2010 15:00,san francisco airport,ca,,triangle,300,5 min.,White or light grey colored and leaving red/orange contrails on a bright blue sky.,9/30/2013,37.6152,-122.39
10/10/2010 16:30,springfield,va,us,cigar,15,15 secs,Metalic cigar shaped object sighted during lull in a storm in Springfield&#44 VA,11/21/2010,38.7892,-77.1875
10/10/2010 17:10,bridgeport,ct,us,light,600,five to ten minutes,Saw a light in the sky fading in and out over Bridgeport&#44 CT.,11/21/2010,41.1669,-73.2053
10/10/2010 18:30,clackamas,or,us,triangle,120,1-2minutes,triangular ufo sighting in oregon 10-10-10,11/21/2010,45.4078,-122.5692
10/10/2010 20:00,san angelo,tx,us,oval,60,1 minute,I was coming back from the grocery store around 8:30 pm when I noticed a large orange glowing object in the sky above my neighbors hous,11/21/2010,31.4636,-100.4367
10/10/2010 20:20,windsor,ct,us,fireball,5,5 seconds,Bus sized fireball object over 91 about 3-400 ft up going about 150 mph at a downward 20 degree angle.,5/2/2014,41.8525,-72.6442
10/10/2010 20:45,sterling,il,us,cylinder,600,10min,It had rows of white lights with red lights pulsating in between them,11/21/2010,41.7886,-89.6961
10/10/2010 21:00,everett,wa,us,other,30,30 seconds,crown shaped object with two orange lights over everett wa,11/21/2010,47.9792,-122.2008
10/10/2010 21:00,kykotsmovi,az,us,disk,7200,2 hours,We saw  what seem to be a space craft in the eastern sky of northern AZ&#44 on 10-10-10.,1/31/2011,35.8753,-110.6197
10/10/2010 21:30,albany,ny,us,circle,10,10 seconds,Circle of light SUNY Albany.,8/30/2013,42.6525,-73.7567
10/10/2010 22:30,garden grove,ca,us,egg,7200,2 hours,Blue Light in Garden Grove,11/21/2010,33.7739,-117.9406
10/10/2010 23:00,miami,fl,us,changing,1200,approx. 20 mins,Bright lights hovering and going in and out of orchestrated formations,11/21/2010,25.7739,-80.1939
10/10/2011 0:00,troy,ny,us,triangle,7200,2 hours,Red&#44 green &amp; orange blinking triangle formation.  ((NUFORC Note:  Probable sighting of a twinkling star&#44 possibly Sirius.  PD)),10/10/2011,42.7283,-73.6922
10/10/2011 1:00,farmington,nm,us,circle,300,5 minutes,Single reddish circle  in the sky that wasn&#39t jet nor satelitte,8/30/2013,36.7281,-108.2181
10/10/2011 2:00,prescott valley,az,us,other,300,hours,Craft boomerang shape.2:00am duration hours.  ((NUFORC Note:  Probable sighting of a twinkling star&#44 possibly Sirius.  PD)),10/10/2011,34.61,-112.315
10/10/2011 10:30,ashville,ny,us,circle,60,1 minute,Amber object in night sky during full moon&#44 or the day before full moon,10/19/2011,42.0964,-79.3758
10/10/2011 14:00,epsom (surrey) (uk/england),,gb,oval,300,5 mins,Flying beer barrel shaped metallic object,12/12/2011,51.3167,-0.2667
10/10/2011 14:30,north kingstown,ri,us,oval,40,40 sec,Bright oval object in sky,10/25/2011,41.55,-71.4667
10/10/2011 15:00,groton,ct,us,disk,5,less than 5 seconds,Small shiny object seen in sky while driving on clear day&#44 looked back for a 3rd time and it was gone.,10/10/2011,41.35,-72.0789
10/10/2011 18:15,peabody-saugus,ma,,flash,2700,45 minutes,Flashing light in the sky as airplanes flew by.,10/19/2011,42.4682,-71.0141
10/10/2011 19:00,mechanicsville,va,us,light,300,5 minutes,Three orange lights flying in unison,10/19/2011,37.6086,-77.3736
10/10/2011 19:30,murfeesboro/smyrna,tn,,,2700,30-45 minutes,Multi color oblect over Smyrna/Murfreesboro 10/10/11,10/19/2011,35.9475,-86.4884
10/10/2011 20:00,hamilton (canada),on,ca,flash,4,2-4 seconds,Strange flash in the sky,10/19/2011,43.25,-79.8333
10/10/2011 20:00,middletown,ct,us,fireball,1200,15-20 minutes,Fireball Spinning Orange UFO,10/19/2011,41.5622,-72.6511
10/10/2011 21:00,lakewood,oh,us,fireball,60,1 minute,Orange light flies overhead and turns black as it passed silently.,12/12/2011,41.4819,-81.7983
10/10/2011 21:00,york,pa,us,circle,15,15 seconds,BRIGHT LIT ORB SPEEDS ACROSS S.CENTRAL PA. SKY&#44 MAKING NO SOUND&#44 THEN DISAPPEARS,10/19/2011,39.9625,-76.7281
10/10/2011 21:55,north platte,ne,us,circle,3,3 seconds,Object over North Platte Nebraska,12/12/2011,41.1239,-100.765
10/10/2011 23:00,waynesville,oh,us,triangle,90,1:30,Flying triangle by Waynesville&#44 Ohio,10/19/2011,39.5297,-84.0867
10/10/2012 10:15,bridgeport,ct,us,circle,630,10:30,A Bright light that is a UFO,10/30/2012,41.1669,-73.2053
10/10/2012 15:00,san francisco airport,ca,,triangle,300,5 minutes,San Francisco International Airport         afternoon      about  5minutes       super clear conditions,9/30/2013,37.6152,-122.39
10/10/2012 18:56,san diego,ca,us,sphere,240,4 minutes,Single white light or craft passed over and very close to a commercial jet.  ((NUFORC Note:  Possibly the ISS?  PD)),10/30/2012,32.7153,-117.1564
10/10/2012 19:09,sterling heights,mi,us,oval,120,1-2 minutes,A black unknown craft is seen in the sky over Sterling Hts. Michigan,10/30/2012,42.5803,-83.0303
10/10/2012 19:40,syracuse,ny,us,light,900,15 minutes,Went to move my car to the other side of the road in the city of syracuse.  saw low flying lights moving east towards dowtown.,10/30/2012,43.0481,-76.1478
10/10/2012 19:45,syracuse,ny,us,circle,240,4 minutes,Bright orange circles going thru the sky in the same direction. Some were closer to each other.,10/30/2012,43.0481,-76.1478
10/10/2012 20:00,colorado springs,co,us,light,20,15 to 20 seconds,Bright zig zagging light in the sky above norad.,10/30/2012,38.8339,-104.8208
10/10/2012 20:00,moundville,al,us,changing,240,4 minutes,Orange fiery lighting objects changing locations.,10/30/2012,32.9975,-87.63
10/10/2012 20:15,new york city (bronx),ny,us,disk,1800,30 minutes,A cloaked disk hovered three hundred feet above two apartment buildings in the Bronx&#44 for aproximately thirty minutes.,10/30/2012,40.7142,-74.0064
10/10/2012 20:17,mount albert (canada),on,,triangle,30,30 seconds,On Wednesday October 10 2012 at 8:17 pm in Mount Albert Ontario I saw a triangle shaped UFO. It had a single light on each point and it,10/30/2012,44.1361,-79.3083
10/10/2012 20:30,las cruces,nm,us,fireball,120,1-2 minutes,4 fireballs in sky side by side,10/30/2012,32.3122,-106.7778
10/10/2012 20:30,marion,il,us,light,240,2 to 4 minutes,I was leaving my friend&#39s house to go home.  My friend and her 3 1/2 year old daughter walked me to her front door when she noticed all,10/30/2012,37.7306,-88.9331
10/10/2012 20:30,san jose,ca,us,other,6,5-6 seconds,POSSIBLE ALIEN/HUMANOID SEEN RUNNING INTO HILLS,10/30/2012,37.3394,-121.8939
10/10/2012 20:45,phoenix,az,us,sphere,300,5 minutes,18 glowing UFOs seen over Phoenix  AZ tonight&#44 10/12/12 8:45PM,10/30/2012,33.4483,-112.0733
10/10/2012 20:48,yakima,wa,us,light,240,4 minutes,Noticed light in the N.E. section of the sky about 30 deg. up that did not move. About the size of Venus.  ((NUFORC Note:  Capella?  PD,10/30/2012,46.6022,-120.5047
10/10/2012 21:00,austin,tx,us,changing,1200,15-20 minutes,Spheres of light seen over the west campus area of austin which then broke apart and sped off in different directions.,12/20/2012,30.2669,-97.7428
10/10/2012 21:00,bean station,tn,us,cigar,180,3 minutes,Large cigar shaped flying about 800 feet high.  Huge square engines on back.,10/30/2012,36.3436,-83.2842
10/10/2012 21:00,rochester,wa,us,light,600,10 minutes,Fleet of red UFO&#39s emerging from Mt. Rainier.,11/19/2012,46.8219,-123.095
10/10/2012 23:01,suffern,ny,us,cylinder,20,20 seconds +,UFO over Suffern NY,10/30/2012,41.1147,-74.15
10/10/2012 23:20,rancho mirage,ca,us,rectangle,5,5 seconds,Flying red object over Rancho Mirage&#44 ca,10/30/2012,33.7397,-116.4119
10/10/2013 0:00,clifton,nj,,light,60,<1 minute,Bright light&#33&#33,10/14/2013,40.8584,-74.1638
10/10/2013 2:32,palm harbor,fl,us,chevron,5,5 seconds,Tracking north to south at apx 2500 ft. A very fast&#44 semi-transparent Chevron shape craft&#44 slightly larger than a commercial plane.,10/14/2013,28.0778,-82.7639
10/10/2013 5:00,aurburn,ky,,triangle,600,10 minutes,Three bright lights over field.,10/14/2013,36.8642,-86.7103
10/10/2013 17:00,st. louis county,mo,us,light,10800,2-3 hours,Hovering bright object moving slowly around St. Louis.,10/23/2013,38.6272,-90.1978
10/10/2013 17:10,ottawa (canada),on,ca,light,10,10 seconds,FATHER: My name is Eldon Trepanier&#44  and I assure you that the following statement is true.At approximately 5:10 pm&#44 I spotted a very b,10/14/2013,45.4167,-75.7
10/10/2013 19:00,rittman,oh,us,light,60,1 minute,Fast moving white light.,10/14/2013,40.9781,-81.7822
10/10/2013 19:15,harvey station (canada),nb,ca,light,120,2 minutes,Slow moving bright orange light.,10/23/2013,45.7167,-67.0
10/10/2013 19:20,essex junction,vt,us,light,120,2 minutes,Noiseless&#44 low flying&#44 white&#44 bright constant light.,10/14/2013,44.4906,-73.1114
10/10/2013 19:20,kenner,la,us,circle,600,10 minutes,2 circle lights moving erratically over Kenner&#44 La.,10/14/2013,29.9939,-90.2417
10/10/2013 20:00,drexel,oh,us,circle,300,5 minutes,Yellow/orange&#44 sphere/circle that flew across night sky &#44slow speeds then simply vanished &#44 had no blinking lights&#44 was not an airplane,10/14/2013,39.7464,-84.2867
10/10/2013 20:00,hudson,nh,us,light,5,5 seconds,White&#44 orb above the clouds moving very fast&#44 no flashing lights&#44 zoomed across the sky and disappeared out of sight.,10/14/2013,42.7647,-71.4403
10/10/2013 20:30,grand blanc,mi,us,light,1200,20 minutes,3 bright lights holding a vertical position over central Michigan&#44 USA.,10/14/2013,42.9275,-83.63
10/10/2013 20:30,savage,mn,us,circle,60,1 minute,I saw a sphere shaped object flying east to west moving faster than any conventional aircraft was white to orange in color as it reache,10/14/2013,44.7792,-93.3361
10/10/2013 20:32,warren,mi,us,sphere,45,45 seconds,Three glowing reddish-orange spheres changing to white lights,10/14/2013,42.4775,-83.0278
10/10/2013 20:35,canton,mi,us,triangle,180,3 minutes,Black triangle aircraft with white lights on each point&#44 completely silent&#44 seen flying low SW to NE.,10/14/2013,42.3086,-83.4822
10/10/2013 21:17,lost creek,wv,us,triangle,45,45 seconds,Small triangle with 3 lights floating low over a field then slowly flying away.,10/14/2013,39.1611,-80.3522
10/10/2013 21:30,hudson,nh,us,light,1,1 second,Very white bright light moving fast inside clouds.,10/14/2013,42.7647,-71.4403
10/11/1973 16:45,jupiter,fl,us,egg,14400,possible 4 hrs.,EGG-SHAPED OBJECT EMITS LIGHT RAY AND PEOPLE LOSE 4 HOURS,7/11/2000,26.9339,-80.0944
10/11/1978 23:00,brighton,mi,us,circle,300,5 miniutes,round revolving lights reflecting on the fog,10/28/2002,42.5294,-83.7803
10/11/1986 20:30,alice springs  (nt&#44 australia),,au,,20,20 seconds,Being  of light reported&#44Jesus or another messenger&#33,1/19/2005,-23.6975,133.8836
10/11/1987 21:30,minnetonka,mn,us,light,30,30 seconds,White light moves west to east&#44 suddenly stops&#44 then moves south at a high rate of speed.,10/14/2013,44.9133,-93.5031
10/11/1987 23:59,otto,mo,us,fireball,60,60 seconds,bright blue ball of light.,8/19/2000,38.3708,-90.5003
10/11/1989 21:00,kewanee,il,us,sphere,180,2 to 3 minutes,HBCCUFO CANADIAN REPORT:  Large glowing sphere was positioned almost directly overhead.,10/15/2003,41.2456,-89.9247
10/11/1989 21:00,kewanee,il,us,sphere,300,5 minutes,Reddish-orange sphere seen outside Kewanee&#44 IL,7/26/2002,41.2456,-89.9247
10/11/1992 10:00,albuquerque,nm,us,sphere,900,15 minutes,Six Spheres of light move into my vision over the 92 Albuquerque Balloon Fiesta&#44then vanish straight up.,3/6/2001,35.0844,-106.6506
10/11/1994 2:00,jackson,nj,us,triangle,300,5mins,triangle UFO in jackson NJ  Countyline 526   over the old fire station next to the trailer park,1/29/2002,39.7764,-74.8628
10/11/1994 4:00,riverside,ca,us,chevron,4,4 seconds,Double white lights in chevron shape flying north to south about the size of the constellation of the Pleades&#44 covered half the sky in,1/28/1999,33.9533,-117.3953
10/11/1995 18:30,new york city (brooklyn),ny,us,,720,12 min.,Young man&#44 mother witness watch strange red obj. 45 deg. above horizon w/ binocular.  Obj. suddenly fades&#44 disappears from sight.,11/2/1999,40.7142,-74.0064
10/11/1995 20:00,huntington,wv,us,,120,2 min.,Young man &amp; grandfather see a &quot;large&#44 orange&#44 round or oval&quot; obj. move along horizon very fast&#44 hover&#44 move erratically.  Bizarre&#33,11/2/1999,38.4192,-82.4453
10/11/1996 22:00,damascus,va,us,light,60,60 sec.,1996 SIGHTING IN DAMASCUS&#44 VA. WHILE CAMPING IN THE CHEROKEE NATIONAL FOREST.,9/24/2003,36.6336,-81.7839
10/11/1997 22:00,hafnarfjordur (iceland),,,sphere,300,5 min,playing with a jet,6/12/2008,64.0667,-21.95
10/11/1998 2:15,montara,ca,us,other,3600,1 hour,Boomerang shaped lit up at the neds and center of the boomerang.,11/1/1998,37.5422,-122.515
10/11/1998 14:05,vega baja (puerto rico),pr,us,cigar,120,2 minutes,I went out and saw this cigar shaped object&#44 high above&#44 about where the sun would be at 12 o&#39clock. I stared at it trying to identify,11/1/1998,18.4464,-66.3881
10/11/1998 14:30,mount carmel,tn,us,light,10,10 seconds,Bright shiny object splits in two and disappears above horizon.,11/1/1998,36.5453,-82.6611
10/11/1998 20:30,highland,in,us,sphere,14400,4 hrs +,Spherical.  Red&#44 yellow&#44 and green lights.  Below clouds&#44 yet very high up.,11/1/1998,39.7944,-87.3958
10/11/1998 22:40,bar harbor (bar island crossover),me,us,sphere,30,30 seconds,My friend Steven and I were crossing over to Bar Island at low tide when we witnesses a green spherical object crossing the sky at a gr,11/1/1998,44.3875,-68.2044
10/11/1998 22:45,elk grove,ca,us,fireball,4,4 seconds,Greenish blue fireball streaking across horizon,11/1/1998,38.4089,-121.3706
10/11/1999 0:15,montgomery,al,us,light,180,3 minutes,Bright light coming from back yard and a surreal sensation of forboding.,3/21/2003,32.3667,-86.3
10/11/1999 4:30,los angeles,ca,us,light,300,5min,It was a large bright light sitting stationary in the sky. Within our atmosphere. Not a star. It did not move or change shape and was t,10/19/1999,34.0522,-118.2428
10/11/1999 6:10,somerset?,wi,,unknown,120,2 minutes,Huge pulsating red light over I-94.  High overhead&#44 moving east,10/19/1999,45.1244,-92.6735
10/11/1999 7:40,three rivers,mi,us,oval,600,10minuets,While dirving to work this monday morning the 11th of October I spotted two jets flying toward the horizion. Becouse of the rising sun,10/19/1999,41.9439,-85.6325
10/11/1999 9:10,canby,or,us,light,10,10 seconds,i saw bright light come out of clouds&#44 2 aircraft came from behind and appeared to shot at the light&#44 light went back into the clouds,10/19/1999,45.2631,-122.6914
10/11/1999 18:00,parry sound (near) (canada),on,ca,disk,6,6 seconds,A silvery disk shaped object&#44 flew over an aircraft&#44 then disappeared.,4/22/2003,45.3333,-80.0333
10/11/1999 20:15,portville,ny,us,oval,30,30 seconds,The object was just below the tree line. The object was light up by a yellowish light with blue lights.You could see the windows in it,10/19/1999,42.0386,-78.3411
10/11/1999 20:15,portville,ny,us,oval,30,30 seconds,Was oval shaped had different colored lights all the way around the center of the object. The top was yellowish with windows with light,10/19/1999,42.0386,-78.3411
10/11/1999 20:15,portville,ny,us,oval,60,1 minute,it was a beautiful oval shaped object that had huge windows lite with every color you can imagine.  we saw this object to the left of t,10/19/1999,42.0386,-78.3411
10/11/1999 20:15,portville,ny,us,oval,60,1 minute,oval shaped with colorful lights all around with huge windows lite up very colorful most beautiful thing in the sky. in valley area it,10/19/1999,42.0386,-78.3411
10/11/1999 20:35,kirbyville (due south of),mo,us,other,5400,1.5hours,About 2030 cst I noticed what apeared to be a &quot;tumbler&quot; a flashing satellite. After observing for approx.10 min. I realized that the ob,10/19/1999,36.6231,-93.1639
10/11/1999 21:00,winnemucca,nv,us,cigar,2,seconds,oblong&#44 extremely large and  bright object in sky&#44 going behind mountains. Object much larger than a meteorite.,10/19/1999,40.9731,-117.7347
10/11/1999 21:10,ashland,or,us,triangle,45,30-45 sec.,I was looking into the sky towards the high east watching what appeared to be a passenger jet cross the sky when my periphial vision ca,10/19/1999,42.1947,-122.7083
10/11/1999 21:30,augusta,ks,us,light,600,10 mins,Object was at 45 degrees above southern horizon. Being stationary for 5 mins. and then executed some right angle maneuvers. Focal dista,11/9/1999,37.6867,-96.9764
10/11/1999 21:30,montgomery,tx,us,light,3600,1hrs,Pinpoint of light travelled from east to west breifly then hovered for about an hour then disappeared.,10/19/1999,30.3881,-95.6961
10/11/1999 21:45,eureka springs,ar,us,light,900,15 min.,Bright light due south&#44 traveling east extremely slowly. Bright flash given off from object every 10 seconds&#44 with a dim flash every 3,11/2/1999,36.4011,-93.7378
10/11/1999 22:15,parker&#39s lake,ky,,disk,900,10-15 min,Flashing lights sighted out of my window,10/19/1999,37.7043,-88.4268
10/11/1999 22:30,addison (i-355 and us 20 (lake st.),il,us,disk,600,10 min,Saucer shaped object&#44with rows of red lights on bottom side; one white lighttop and bottom,11/9/1999,41.9317,-87.9889
10/11/2000 19:30,london (uk/england),,gb,diamond,3,3 seconds,Diamond shaped ufo seen pulsing for short time near London England,12/2/2000,51.5141,-0.0937
10/11/2000 20:00,watertown,ny,us,light,30,30 seconds,Was looking at the near full moon with binoculars when a very bright round light appeared to the left of the moon. at arms lenght it wa,12/2/2000,43.9747,-75.9111
10/11/2000 22:00,elverta,ca,us,light,30,hours,White starlike lights in sky that blink red and blue and move erratically over Sacramento region.,12/2/2000,38.7139,-121.4617
10/11/2000 22:09,dolgellau (uk/wales),,gb,changing,240,3 or 4 minutes,How two became one.,12/20/2000,52.75,-3.8833
10/11/2000 23:30,whittier,ca,us,light,1500,20-25 mins,UFO ENCOUNTER LESS THAN 300 FEET,12/12/2011,33.9792,-118.0319
10/11/2001 1:00,somerset,wi,us,light,10800,3 hours+,My brother and I went outside to have a smoke and then noticed a moving&#44 multicolored light in the sky....,11/20/2001,45.1244,-92.6733
10/11/2001 2:15,fairbanks,ak,us,other,1800,30 minutes,It looked like a star but it would move and after a few seconds a red aura would appear around it and emit objects.,10/12/2001,64.8378,-147.7164
10/11/2001 5:15,denver,co,us,light,900,15 minutes,Odd Lights in Colorado Sky,10/12/2001,39.7392,-104.9842
10/11/2001 8:15,columbia,ms,us,teardrop,300,5 minutes,short vapotr looking teardropped object&#44 always beside the sun&#33&#33&#33noticed from 10/11-10/26/01,11/20/2001,31.2517,-89.8375
10/11/2001 20:35,grass valley,ca,us,triangle,60,1 minute,Three bright white lights in a row&#44 in the sky.,10/12/2001,39.2192,-121.06
10/11/2001 23:49,lima,oh,us,teardrop,300,5 minutes,We saw three teardroped shaped crafts with slowy flashing lights moving very slow then taking off very rapidly.,10/12/2001,40.7425,-84.1053
10/11/2002 6:17,springfield,mo,us,fireball,6,6 seconds,bright green triangular object throwing sparks traveling extremely fast,10/15/2002,37.2153,-93.2981
10/11/2002 13:25,reno,nv,us,sphere,600,10 min,A small white sphere which stopped&#44 hovered for 5 minutes&#44 then took off and disapeared.,10/15/2002,39.5297,-119.8128
10/11/2002 16:15,randolph,ma,us,cylinder,300,5min,Daylight sighting of High Altitude Light,11/4/2002,42.1625,-71.0417
10/11/2002 20:36,dallas,tx,us,fireball,3,3 seconds,Meteor lights up the skies over Dallas&#44 crashes somehere to the south.,10/28/2002,32.7833,-96.8
10/11/2003 0:00,san diego,ca,us,,172800,2 days?,Lost two days awaken to power out tv fried and blood from ear.Disoriented,10/31/2003,32.7153,-117.1564
10/11/2003 0:20,austin,mn,us,circle,5,5 seconds,THE TWO WHITE ROUND OBJECTS FLEW SYNCHONIZED SIDE BY SIDE AND EVENTUALLY VEERED OFF MADE HALF A CIRCLE AND MERGED&#44 AND RE-ENTERED SPACE,10/15/2003,43.6667,-92.9744
10/11/2003 1:29,new york city (manhattan),ny,us,egg,120,2 minutes,object  discharged another&#44 flew at first low then went higher hovered around empire state building,4/16/2005,40.7142,-74.0064
10/11/2003 3:00,truckee,ca,us,sphere,3,2-3 secs,Round very light blue object goes behind a small mountain,10/15/2003,39.3281,-120.1822
10/11/2003 7:00,fort knox,ky,,fireball,3,2-3 seconds,i saw a large fireball falling to earth in the early morning hours on  Oct.11&#442003 in Kentucky,11/8/2003,37.9161,-85.9562
10/11/2003 11:32,newaygo,mi,us,circle,40,30-40 sec,Two fuzzy disks chaseing each other.,11/26/2003,43.4197,-85.8
10/11/2003 13:00,nebraska (above?&#44 or above south dakota),ne,,cigar,2,seconds,rather large cigar shaped object photographed from airplane window,10/15/2003,41.4925,-99.9018
10/11/2003 19:05,placerville,ca,us,light,600,ten minutes,Unverified pair of bold star lights diminishing in perfect unison.,10/31/2003,38.7297,-120.7975
10/11/2003 20:00,frederick,co,us,unknown,10,10 seconds,Large flash outside the house rattling the windows with a low hum.,10/15/2003,40.0992,-104.9367
10/11/2003 20:30,bloomington,in,us,disk,180,3.minutes,Saucer shaped craft with kaleidoscope lights.,10/15/2003,39.1653,-86.5264
10/11/2003 22:40,independence,mo,us,chevron,600,10 minutes,UFO with black exhaust sighted in Independence&#44 MO Oct. 11&#44 2003,11/8/2003,39.0911,-94.4153
10/11/2004 1:00,honolulu,hi,us,triangle,3,2-3 seconds,3 trangular UFOs were spotted in a triangle formation for 3 seconds.,10/27/2004,21.3069,-157.8583
10/11/2004 2:37,los angeles,ca,us,rectangle,20,15-20 secs,Large&#44 rectangular&#44 pale green-blue object spotted at approx. 2:37 am&#44 10/11/04&#44 moving east over the San Fernando Valley.,10/27/2004,34.0522,-118.2428
10/11/2004 3:40,dallas,or,us,light,20,20 seconds,Very intense light&#44 shone through covered windows&#44 absolutely no sound&#44 felt presence before observing.,10/27/2004,44.9194,-123.3158
10/11/2004 4:15,pitman,nj,us,other,7200,2 hours,star-like light that bobbled side to side and up and down  ((NUFORC Note:  We suspect Venus.  PD)),10/27/2004,39.7328,-75.1319
10/11/2004 5:00,san jose,ca,us,light,15,12-15seconds,Light traveling at very high rate of speed across the morning sky.,10/27/2004,37.3394,-121.8939
10/11/2004 10:00,nuevo laredo (mexico),,,light,1200,20min,While I was driving I stopped at a traffic light and when I turned to wait for the green light&#44 I saw 11 bright lights in the sky,7/16/2006,27.4779,-99.5496
10/11/2004 11:00,salinas,ca,us,formation,2700,45 minutes,Large formation of UFO&#39s seen over south Salinas&#44 CA on Oct. 11&#44 2004&#44 in broad daylight.,10/27/2004,36.6778,-121.6544
10/11/2004 14:00,arroyo grande,ca,us,circle,60,1 minute,observed Angel Hair type UFO,12/14/2004,35.1186,-120.5897
10/11/2004 18:00,fresno,ca,us,rectangle,120,2 minutes,Rectangle over Fresno&#44 California.,11/11/2013,36.7478,-119.7714
10/11/2004 19:00,strongsvilles,oh,,light,5,5 seconds,neon green light or object traveled eastward then fell out of view&#44 no aircraft nearby,10/27/2004,41.3145,-81.8357
10/11/2004 22:29,laredo,tx,us,fireball,1351,22:31,Large flaming tail and eratic movement - sudden change of direction,12/3/2004,27.5061,-99.5072
10/11/2004 23:00,lake worth,fl,us,formation,7200,2 hours,Multiple formations viewed by three witnesses.,10/27/2004,26.6156,-80.0572
10/11/2004 23:15,williamsville,ny,us,light,540,9 minutes,Hovering light seen over Williamsville&#44 NY,10/27/2004,42.9639,-78.7381
10/11/2005 0:00,cannock (uk/england),,gb,formation,180,3 minutes,Formation spotted,10/20/2005,52.6833,-2.0167
10/11/2005 0:00,holiday,fl,us,light,180,ohrs,light dancing over holliday florda,10/20/2005,28.1875,-82.7397
10/11/2005 3:00,eagan,mn,us,circle,7200,2 hours plus,((NUFORC Note:  Possible star.  PD))  Bright colorfull glowing ball.,10/11/2005,44.8042,-93.1667
10/11/2005 3:20,siloam sprngs,ar,,circle,180,3 min,Round light appeared to be surrounded by fog&#44 approaced from south neaded NNE&#44 changed speed&#44 then turned sharply west.,10/20/2005,36.1881,-94.5405
10/11/2005 16:00,canyonlands np,ut,,formation,600,10 minutes,((NUFORC Note:  Possible satellites.  PD))  Needles Outpost: I was admiring the stars I saw 3 moving objects&#44 all in a row.,10/20/2005,39.321,-111.0937
10/11/2005 16:36,lake point,ut,us,light,720,about 12 mins,Lights near  Lake Point/Grantsville&#44 UT,10/20/2005,40.6808,-112.2622
10/11/2005 18:33,pearl harbor,hi,,light,2,2 seconds,Fast moving light in the sky South of Peal Harbor,10/20/2005,21.3445,-157.9749
10/11/2005 18:45,peoria,az,us,light,5400,90 minutes,Formation of amber lights over Tolleson&#44 AZ that flickered off and on for about 90 minutes.,10/20/2005,33.5806,-112.2367
10/11/2005 19:00,buckeye,az,us,formation,1800,30 minutes,two different multi-light configurations that changed position and appeared low in the sky south of Buckeye&#44 Arizona,10/20/2005,33.3703,-112.5831
10/11/2005 19:00,casa grande,az,us,light,1800,30 minutes,amber lights over I-10 near Casa Grande Az.,10/20/2005,32.8794,-111.7567
10/11/2005 19:30,tempe,az,us,triangle,3,~3 sec,3 light triangle stayed perfectly still and then shot off fter 3 seconds of stillness.,10/20/2005,33.4147,-111.9086
10/11/2005 19:45,mobile,al,us,light,1800,30 minutes?,((NUFORC Note:  Possible sighting of Mars.  PD))  Massive brilliant white light that just hung in the Southern sky.,10/20/2005,30.6942,-88.0431
10/11/2005 21:00,little ferry,nj,us,oval,300,5 min,oval sahped  the whole thing was lit up with a very bright white light&#44 huvered over the trees&#44disappeared,12/16/2005,40.8528,-74.0425
10/11/2005 21:00,wall lake,ia,us,light,10,10 seconds,strange shit in the sky in sac county iowa.,10/20/2005,42.2711,-95.0928
10/11/2005 21:50,rotherham (south yorkshire) (uk/england),,gb,oval,3600,1hr,A light it was a oval shape duration was 1hr,12/16/2005,53.4333,-1.35
10/11/2006 1:25,nashville,tn,us,disk,13,13 sec,Circle shaped solid white object flying through clouds.,10/30/2006,36.1658,-86.7844
10/11/2006 2:00,calumet city,in,,circle,420,7 minutes,i work as a security guard at the calume t city airport. i have grave yard shift fom 11:pm to 7 am. i was doing my round checking the p,10/30/2006,41.6156,-87.5295
10/11/2006 5:40,york,me,,disk,30,30 seconds,Illuminated but not shiny disc  with three large pulsing lights underside&#44 white to red&#44 following path along the Atlantic coastline.,10/30/2006,43.1617,-70.6483
10/11/2006 9:00,littlerock,ar,,oval,600,10 minutes,The first object was shaped like an oval and appeared coming out the southwest traveling in an eastern direction this object appeared t,10/30/2006,34.7465,-92.2896
10/11/2006 11:29,lynnwood,wa,us,unknown,120,a few minutes,I noticed a very white tail behind an object traveling north in the southern sky. It appeared to be very high and far away. The object,10/30/2006,47.8211,-122.3139
10/11/2006 19:00,monterey park,ca,us,fireball,120,1 -2 minutes,huge ball of fire hanging in the sky,12/7/2006,34.0625,-118.1219
10/11/2006 19:30,two harbors,mn,us,light,600,10 minutes,Northern Lights ?? Right&#33,12/7/2006,47.0228,-91.6706
10/11/2006 20:45,pensacola,fl,us,diamond,3600,1 hour,Six orange glowing diamond shaped objects in two separate clusters due east of Pensacola,10/30/2006,30.4211,-87.2169
10/11/2006 21:00,milton,fl,us,light,900,15 minutes,THE LIGHTS KEPT FLASHING AND MOVING AT VERY HIGH SPEEDS SHOWING UP THEN WOULD BE GONE IN AN INSTANT THEN FLYING SIDE WAYS UNLIKE ANY PL,10/30/2006,30.6322,-87.0397
10/11/2006 21:20,kidlington (uk/england),,gb,formation,5,5 sec,Shape of object wasn&#39t wisible. Light spots shine in triangular shape,10/30/2006,51.8167,-1.2833
10/11/2006 21:32,la crescenta,ca,us,circle,3,3 seconds,White light imploded,10/30/2006,34.2242,-118.2392
10/11/2006 22:00,enid,ok,us,light,60,about 1 minute,Fast moving ball of light speeds across the sky.,10/30/2006,36.3956,-97.8781
10/11/2006 23:00,pampa,tx,us,triangle,60,1 minute,Two triangular objects&#44 lit up by three main lights and other lights in between&#44 moving simotaniously to the East over Pampa Tx.,10/30/2006,35.5361,-100.9594
39002,rome,ny,us,oval,120,a min or two,I was walking from the garage to the house&#44I happen to look up at a plane I hurd over head&#44 a small private plane. There&#39s a small air,2/1/2007,43.2128,-75.4561
10/11/2007 4:40,melbourne,ky,us,oval,360,6 minutes,flashing lights spotted near Ohio River,11/28/2007,39.0297,-84.3664
10/11/2007 10:10,carlton,or,us,cylinder,900,15min,it was not anything thath we have,11/28/2007,45.2944,-123.1753
10/11/2007 16:00,clackamas,or,us,circle,900,15 minutes,Silver circular or sphere-like object flying parallel to I-205 in the Gladstone/Clackamas area.,11/28/2007,45.4078,-122.5692
10/11/2007 19:28,brassall (australia),,,unknown,3600,1 hour +,Accidentally photographed very strange UFO,11/28/2007,-27.5976,152.7455
10/11/2007 19:50,seattle,wa,us,triangle,10,10 seconds,I saw two orange colored lights&#44 close together but moving independently across the sky&#44 at high rate of speed. Then they disappeared.,11/28/2007,47.6064,-122.3308
10/11/2007 20:15,tega cay,sc,us,light,1800,30 minutes,Bright white light and then 2 blinking red lights in Western Sky,11/28/2007,35.0242,-81.0281
10/11/2007 20:30,gulf shores,al,us,disk,1800,30 min.,Brightly lighted Object appeared total of 6-8 times in different locations in night sky over ocean for few seconds and disappeared,11/28/2007,30.2458,-87.7008
10/11/2007 23:00,london (uk/england),,gb,unknown,300,5 minutes,Yellow lights in formation,3/4/2008,51.5141,-0.0937
10/11/2008 0:00,klagenfurt (austria),,,chevron,60,1 minute,It came from the direction of the city&#44 when I stood on a hill in total darkness in the countryside. It was moving strangely&#44  not stra,3/19/2009,46.6279,14.309000000000001
10/11/2008 4:30,brownsville,tx,us,disk,3,3 seconds,I saw a ufo for 3 seconds by my house.,10/31/2008,25.9014,-97.4972
10/11/2008 6:00,concord,ca,us,light,180,2-3 minutes,Very small lights&#44 very high. moved at great speed and cganged direction. Not aircraft.,10/31/2008,37.9781,-122.03
10/11/2008 13:00,salisbury,nc,us,sphere,20,20 secounds,7 UNKOWN AIRBORN OBJECT&#39S SEEN OVER  SALISBURY NC..SEARCH GRID WITNESSED&#33&#33..,10/31/2008,35.6708,-80.4744
10/11/2008 17:30,bellmere (australia),,,cylinder,240,4 minutes,Very large long white cylinder object traveling high up and smoothly above storm clouds.,1/10/2009,-27.0881,152.9281
10/11/2008 19:00,bridgeport,ct,us,circle,7200,2 hours,I saw 6 glowing orbs lining up in different formations witin a 2 hour period over Long Island Sound.,10/31/2008,41.1669,-73.2053
10/11/2008 19:00,dover,md,us,sphere,7200,2 hours?,freinds and familes see UFO,10/31/2008,39.5122,-76.7697
10/11/2008 19:00,riverside,ca,us,light,60,1 min approx,Bright light moving from NW to SE,10/31/2008,33.9533,-117.3953
10/11/2008 19:30,naples,fl,us,triangle,30,30 seconds,A dark flying V.,10/31/2008,26.1417,-81.795
10/11/2008 20:30,centerville,tx,us,light,900,15 minutes,MYSTERIOUS LIGHTS IN THE TEXAS SKY.,3/19/2009,31.2578,-95.9781
10/11/2008 20:30,villa park/lombard,il,,changing,300,5 minutes,Several Orange Lights Over Vila Park Lomabrd Areas 10-11-2008,3/19/2009,41.8857,-87.9692
10/11/2008 22:20,albuquerque,nm,us,fireball,120,2 minutes,Vehicle out of southern sky thought to be shooting star hovers over city.,10/31/2008,35.0844,-106.6506
10/11/2008 22:30,los angeles,ca,us,triangle,30,30 seconds,Large Triangle sighted over L.A,10/31/2008,34.0522,-118.2428
10/11/2009 0:00,sedro woolley,wa,,unknown,10,10 seconds,Unusaul flight charactoristics,12/12/2009,48.5039,-122.2361
10/11/2009 2:45,deer park,ny,us,other,10800,3 hrs,2 Bright Orange lights in the sky moving up&#44 down&#44 and circular motion with shooting streaking trail -looked like shooting star,12/12/2009,40.7617,-73.3297
10/11/2009 4:00,crisfield,md,us,light,600,5 to 10 min,A bright light moving across the sky getting closer stopped on a dime got brighter and took off with no sounds at all,12/12/2009,37.9833,-75.8542
10/11/2009 4:45,st. john&#39s (canada),nf,ca,flash,5,>5 seconds,Bending streak of white light over suburban area.,12/12/2009,47.55,-52.6667
10/11/2009 9:45,plymouth,mi,us,triangle,20,20 seconds,I was standing on a sidewalk near salem high school where i saw a triangular shaped craft slowly gliding right over my head. my mom jus,6/27/2011,42.3714,-83.4703
10/11/2009 12:30,glendale,az,us,egg,1200,20 minutes,2 eggshaped objects over Glendale Az. near stadium.,12/12/2009,33.5386,-112.1853
10/11/2009 18:00,louisville,ky,us,disk,120,several minutes,strange object photographed over Louisville&#44 Kentucky October 11&#44 2009,12/12/2009,38.2542,-85.7594
10/11/2009 18:05,west palm beach,fl,us,oval,3,3 seconds,At around 6pm (18:00 hours) I was outside in the backyard of my home with my Canon EOS Rebel XT digital camera taking photographs of na,12/12/2009,26.7053,-80.0367
10/11/2009 19:00,north smithfield,ri,us,circle,15,10 to 15 seconds,I was watching the sky like I always do on a clear night because you can always see what appear to be stars riding along the night sky.,12/12/2009,41.9667,-71.55
10/11/2009 19:50,putnamville,in,us,flash,540,8 - 9 minutes,Two Hovering Aircraft Spotted Around a Strange Haze,12/12/2009,39.5742,-86.8653
10/11/2009 21:55,madison,wi,us,light,180,3 minutes,Amber orange light moving very slowly&#44 dimming out&#44 shooting away.,12/12/2009,43.0731,-89.4011
10/11/2010 0:30,redondo beach,ca,us,other,1200,20 min,three lights that changed colors rapidly suspended over the ocean that increased and decreased in intensity often,11/21/2010,33.8492,-118.3875
10/11/2010 4:00,moxee,wa,,rectangle,1,1 sec and 1 sec,bow shockwave with rectangle craft it was hyperfast,11/21/2010,46.5537,-120.3832
10/11/2010 4:50,albany,ny,us,oval,120,2 min,Oval metallic object,11/21/2010,42.6525,-73.7567
10/11/2010 6:20,west palm beach,fl,us,sphere,2400,40 min,Electrical Sphere shape morning sky over Palm Beach Florida,11/21/2010,26.7053,-80.0367
10/11/2010 12:30,orangevale,ca,us,changing,2700,about 45 min,slowmoveing  fire ball in sky,11/21/2010,38.6786,-121.2247
10/11/2010 19:40,cottage grove,mn,us,light,240,3-4 minutes,Craft with two white lights in Minneapolis Approach Pattern that moved down and not forward then disappered behind the tree line.,11/21/2010,44.8278,-92.9436
10/11/2010 20:50,glendora,ca,us,circle,60,1 min,I was north on a mountain facing south with my friend. We were star gazing and I looked up in the sky at about a 45 degree angle and sa,11/21/2010,34.1361,-117.8644
10/11/2010 20:53,ramona,ca,us,triangle,5,3-5 seconds,We believed this object to be an airplane on fire,11/21/2010,33.0417,-116.8672
10/11/2010 21:35,union city,ca,us,other,15,15 seconds,Opposing lights of amber that sliently crossed low in the sky.,11/21/2010,37.5958,-122.0181
10/11/2010 23:20,clinton township,mi,,fireball,15,15 seconds,Fireball lifted into the sky and dissipated into a cloud.,11/21/2010,42.5869,-82.9196
10/11/2011 3:15,omaha,il,us,chevron,120,2 min,I noticed the craft as it had just passed over Rt 1. i brought my semi to a stop and shut down the engine. the craft was very large&#44as,10/19/2011,37.8903,-88.3031
10/11/2011 8:40,henderson,nv,us,other,180,3 minutes,UFO Report:  Date: October 11th&#44 2011 Location: Las Vegas&#44 NV (near Henderson&#44 NV) Time: 8:40 A.M. Near Las Vegas Nevada&#44 I was out,10/19/2011,36.0397,-114.9811
10/11/2011 15:00,cedar city,ut,us,light,8,8 seconds,Bright&#44 white&#44 star-like UFO over Cedar City at 1500 on sunny day.,10/19/2011,37.6775,-113.0611
10/11/2011 19:40,des moines,ia,us,light,90,90 seconds,An unexplained&#44 unidentified flying object.,12/12/2011,41.6006,-93.6089
10/11/2011 19:42,new bedford,ma,us,circle,1800,30-minutes,At least 25 orange and red fireballs fly over New Bedford&#44 MA&#44 USA,12/12/2011,41.6361,-70.9347
10/11/2011 21:00,monroe,ct,us,,300,5 min.,Orange Light Formation Over Monroe&#44 CT 10/11/11--Hangs in Sky then Flys Away.,10/19/2011,41.3325,-73.2078
10/11/2011 21:10,holden beach,nc,us,circle,30,30 seconds,6 orange balls of light over the Atlantic ocean.,10/19/2011,33.9133,-78.3042
10/11/2011 23:23,harrodsburg,ky,us,unknown,480,8 min,Unknown lights.,5/29/2012,37.7622,-84.8433
10/11/2012 1:00,worcester,ma,us,unknown,4,4 seconds,Big extremely bright white light hovering in sky,10/30/2012,42.2625,-71.8028
10/11/2012 2:45,watchung (was my perspective),nj,us,sphere,3600,1 hour about,Orange sphere moving in unbeliveable ways&#44&#44&#44another green spehere near by with rays emerging form it.  Bizarre,10/30/2012,40.6378,-74.4514
10/11/2012 4:00,tewksbury,ma,us,light,2,2 seconds,Huge white streaking object moving high rate of speeds in night sky,10/30/2012,42.6106,-71.2347
10/11/2012 7:00,bablyon,ny,,disk,120,2 minutes,Saw a object that was very odd in the sky over the ocean off fire island inlet&#33&#33,10/30/2012,40.6957,-73.3257
10/11/2012 8:00,angola,in,us,cigar,7200,2 hours,4 objects metalic reflecting from rising sun in the east&#44 then witnessed what looked to be 7 more objects in a straight line. Then hear,10/30/2012,41.6347,-84.9994
10/11/2012 19:30,arbutus,md,us,light,300,5 minutes,Moving star and strange man,10/30/2012,39.2544,-76.7003
10/11/2012 19:30,forty fort,pa,us,fireball,720,12 minutes,Slow moving bright light,10/30/2012,41.2789,-75.8786
10/11/2012 19:45,saratoga springs,ny,us,circle,300,5 minutes,Brightly lit object&#44 twice the size of a planet&#44  traversed the night sky&#44 dimmed&#44 and disappeared from view.((NUFORC Note:  ISS? PD)),10/30/2012,43.0831,-73.785
10/11/2012 20:00,nanticoke,pa,us,diamond,60,~1 minute,UFO sighted over Nanticoke PA,10/30/2012,41.2053,-76.0053
10/11/2012 20:30,las cruces,nm,us,fireball,120,1-2 minutes,4 fireballs side by side,10/30/2012,32.3122,-106.7778
10/11/2012 20:42,ravensdale,wa,us,triangle,10,10 seconds,Driving on kent kangley road I observed a triangle arrangement of lights hovering about 100 feet off the ground.  The lights were multi,10/30/2012,47.3525,-121.9825
10/11/2012 21:00,levittown,pa,us,diamond,60,1 minute,About 9:00 pm&#44 Oct. 11&#44 2012&#44 driving home I first heard strange high-pitched siren-like sound&#44 and rolled down my window to hear what,10/30/2012,40.155,-74.8292
10/11/2012 21:01,phoenix,az,us,sphere,30,30 seconds,10/11/12  Phoenix&#44 AZ  Sphere  30 sec   Yellowish-orange flashing sphere seen by myself        10/12/12,10/30/2012,33.4483,-112.0733
10/11/2012 22:15,blue island,il,us,circle,45,45 seconds,Red circular object surrounded by yellow glow flying w/no sound quickly coming out of east turning southbound,10/30/2012,41.6572,-87.68
10/11/2013 1:00,saginaw,mi,us,chevron,4,4 seconds,10 or so dimly lit white lights in a large arrow shape formation moving at high rate of speed.,10/14/2013,43.4194,-83.9508
10/11/2013 3:00,hamilton (canada),on,ca,cylinder,3600,0300:0400,Enlarged still frame pics of the video show strage shapes and strange colors.,10/23/2013,43.25,-79.8333
10/11/2013 6:13,ankeny,ia,us,circle,120,2 minutes,Two slow moving star-like objects suddenly accelerated to light speed heading towards Jupiter,10/14/2013,41.7297,-93.6056
10/11/2013 9:05,palm beach gardens,fl,us,light,15,10-15 seconds,Five orange flying objects in the nights sky and no sound.,10/14/2013,26.8231,-80.1389
10/11/2013 16:01,pickering (canada),on,ca,circle,300,5 minutes,Glowing blue sphere in Ontario&#44 Canada.,1/30/2014,43.8667,-79.0333
10/11/2013 16:35,kalamazoo,mi,us,fireball,600,~10 minutes,Massive caravan of a hundred red/orange fireballs moving from west to east at a steady rate in formation for at least ten minutes.,10/14/2013,42.2917,-85.5872
10/11/2013 19:00,lawrence,ks,us,unknown,240,2-4 minutes,Silent blue and white lights of craft object change color&#44 approach myself and boyfriend&#44 before changing into buzzing&#44 everyday plane,10/14/2013,38.9717,-95.235
10/11/2013 19:20,north cincinnati,oh,,fireball,600,10 minutes,Some sort of fireball came down from the sky very rapidly soon to turn into 3 flying disc that where lit up (clearly not stars) they se,10/14/2013,39.1031,-84.512
10/11/2013 19:50,essex junction,vt,us,light,60,60 seconds,4 or 5 Orange Lights in Vermont Sky,10/14/2013,44.4906,-73.1114
10/11/2013 20:00,cincinnati,oh,us,circle,300,4-5 minutes,Glowing Orange Fireball/Lights Seen at Turpin HS Football Game.,2/21/2014,39.1619,-84.4569
10/11/2013 20:00,cincinnati,oh,us,fireball,240,4 minutes,Cincinnati fire ball in the sky?,10/14/2013,39.1619,-84.4569
10/11/2013 20:00,naples,fl,us,light,7200,few hours,Circle of Different color flashing light over gulf in naples,10/14/2013,26.1417,-81.795
10/11/2013 20:15,bonaie,ga,,light,300,3-5 minutes,15-25 red/orange lights moving at a low altitude in the same pattern with no sound at all.,10/14/2013,32.5439,-83.5961
10/11/2013 20:15,cincinnati,oh,us,fireball,60,1 minute,3 fireball type objects close to downtown Cincinnati.,10/14/2013,39.1619,-84.4569
10/11/2013 20:15,union,ky,us,fireball,300,5 minutes,amber fireball descending&#44splits into 3 objects&#44stops&#44they hover above ground with erratic movements,10/23/2013,38.9458,-84.6806
10/11/2013 20:20,hubbardston,ma,us,fireball,60,1 minute,4 orange orbs zig zgging across the sky.  Quick movements forward and aft and side to side.,10/14/2013,42.4736,-72.0067
10/11/2013 20:45,covington,ga,us,light,300,5 minutes,Saw a bunch of low-altitude lights drifting overhead.,10/14/2013,33.5967,-83.8603
10/11/2013 21:00,drexel,oh,us,sphere,180,3 minutes,Blue white streak in sky&#44 2 orange orbs splitting. seems like it landed.,10/14/2013,39.7464,-84.2867
10/11/2013 21:00,fayetteville,ny,us,chevron,90,90 seconds,Brilliant slow moving light in fayetteville ny.,10/14/2013,43.0297,-76.0047
10/11/2013 22:00,jupiter,fl,us,light,900,15 minutes,Groups of glowing orange objects moving randomly from east to west over Jupiter Inlet area at approximately 10:00 pm Oct 11&#44 2013.,10/14/2013,26.9339,-80.0944
10/11/2013 22:00,melbourne,fl,us,sphere,300,5 minutes,At or around 22:00 hours my Mother called me outside to look at something My Father and I walked out the front door and observed a larg,10/14/2013,28.0833,-80.6083
10/11/2013 22:08,dresser,wi,us,sphere,60,1 minutes,Large Orange Sphere over Polk county Wisconsin.,10/14/2013,45.3561,-92.6333
10/11/2013 22:10,lombard,il,us,formation,60,1 minute,5-8 orange lights over suburban Chicago,10/14/2013,41.88,-88.0078
10/11/2013 22:18,windsor (canada),on,ca,light,300,3-5 minutes,5 orange lights seen in sky over windsor.,10/14/2013,45.5833,-72.0
10/11/2013 23:00,north canton,oh,us,fireball,10,10 seconds,Fireball over the Strip.,10/14/2013,40.8758,-81.4025
10/11/2013 23:15,pinckney,mi,us,fireball,2,2 seconds,Large orange fireball observed over Hell&#44 Michigan&#44 traveling from due south to due north directly overhead.,10/14/2013,42.4567,-83.9464
10/1/1950 11:00,pikeville,ky,us,disk,600,hr,SEVENTY SOME  FLYING DISK OBSERVED IN  1950,4/16/2005,37.4792,-82.5189
10/1/1952 3:30,fukuoka (japan),,,disk,1200,about 20 mins,UFO seen by multiple U. S. military personnel; F-86 intercept.,12/7/2006,33.5904,130.4017
10/1/1952 12:00,kansas city,mo,us,disk,90,90 sec.,1952 daylight sighting of multiple discs in formation,10/31/2008,39.0997,-94.5783
10/1/1954 19:00,flatwoods,wv,us,circle,60,1 minute,I saw the craft go across the horizon.  It appeared to be on fire&#44 I first thought it was a plane going down.  It landed near a farm.,4/12/2013,38.7231,-80.65
10/1/1955 22:00,mono lake (area),ca,,circle,5,five seconds+/-,NO KNOWN AIRCRAFT (1955 and maybe today) COULD MAKE SUCH A SPEEDY 360 DEGREE CIRCLE MANUVER&#44 WITH NO SOUND &#33,3/19/2009,38.0071,-119.0123
10/1/1956 19:00,newport,nh,us,rectangle,300,5 minutes,Disk with glass center section&#44 and flames behind the glass,4/16/2005,43.3653,-72.1739
10/1/1957 16:00,nelchina (near),ak,us,unknown,180,3 minutes maximum,This incident occurred about October of 1956 or &#8216;57. At the time&#44 I was Assistant station manager for a major airline in Anchorage as,12/7/2006,61.9919,-146.7686
10/1/1957 21:00,paterson,nj,us,disk,10,10 seconds,Formation of approximately 8 light gray metallic disks silently crossing the night sky around October 1957 in northern NJ,4/16/2005,40.9167,-74.1722
10/1/1957 22:00,northeast cape afs,ak,,,900,10-15min,Radar sighting and filming,1/28/1999,70.2925,-161.9033
10/1/1959 19:00,jacksonville,il,us,unknown,60,1 minute,Late 1959&#44 bright lights from a hovering object of unknown shape making a zed-zid zed-zid electrical sound.,4/16/2005,39.7339,-90.2289
10/1/1961 3:00,toledo,oh,us,sphere,180,2-3 mins.,Observed dull silver metallic sphere hovering outside of bedroom window as a child.  Had direct communication with sphere.,11/19/1998,41.6639,-83.5553
10/1/1961 3:30,tulsa,ok,us,disk,120,2 minutes,October&#44 1961&#44 Tulsa Oklahoma: low altitude&#44 slow&#44 disk object(s); high speed turns&#44 v. high accelleration.,4/27/2007,36.1539,-95.9925
10/1/1961 19:00,nashville,tn,us,disk,1800,30 minutes,In October 1961&#44 a silvery flattened disk hovered motionless over a local school fair for more than 30 minutes.,8/5/2012,36.1658,-86.7844
10/1/1961 22:00,graham,nc,us,triangle,30,30 seconds,3 flat&#44 large  white lights in delta pattern&#44 no sound&#44 flying at tree-top level at 35-40 mph,5/14/2002,36.0689,-79.4008
10/1/1965 6:40,biloxi,ms,us,other,900,15 min,Cloud&#44 hovering then moving at right angles with pulsating light coming from within,11/17/1999,30.3958,-88.8853
10/1/1965 14:00,colonial heights,va,us,sphere,120,2 minutes,Saw sphere ping-ponging up and down and side to side in blue sky.,4/1/2000,37.2439,-77.4106
10/1/1965 21:00,dushore,pa,us,disk,300,5 minutes,It could move very slowly or very quickly but either way it moved without making any noise.,4/16/2005,41.5242,-76.4011
10/1/1966 19:00,edmonton (30 mi. east of&#44 hwy 16 east) (canada),ab,ca,diamond,300,5 min,Unusual ights in distance. Approached until object overhead as wide as road and ditch. Bright lights&#44 Turned head to find object in hor,8/5/2001,53.55,-113.5
10/1/1966 20:00,buffalo,ny,us,light,240,4 minutes,One of the bright stars moved north&#44 curved upward&#44 flew in a wide arc&#44 then accelerated up into the cosmos.,1/11/2002,42.8864,-78.8786
10/1/1966 22:00,anacortes,wa,us,light,1200,20 mins.,20 miles driving toward Anacortes&#44a friend and I were listening to a radio station in Anacortes. The DJ said he had recieved calls abou,4/15/2000,48.5128,-122.6114
10/1/1966 22:30,anamosa,ia,us,unknown,60,60 seconds,large quiet  craft&#44 covered with blackness&#44 and &quot;stars&quot; to not be noticed&#44 moving slowly southwest to north north east.,9/17/2000,42.1083,-91.285
10/1/1966 23:00,corvallis,or,us,disk,120,2 minutes,Saucer with no sound flew 100 feet above ground&#44 changed direction then left atmosphere in a split second.,12/16/1999,44.5647,-123.2608
10/1/1967 2:00,chaffee,ny,us,sphere,600,10 minutes,34 years ago and still &quot; seeking the truth&quot;,8/5/2001,42.5681,-78.4792
10/1/1967 13:00,greenville,il,us,circle,30,30 seconds,My son and I went to a ballpark close by to play- we were the only ones there&#44 I happened to look up and right over us&#44 were 3 round uf,2/24/2007,38.8922,-89.4131
10/1/1967 19:00,hudson&#39s hope (canada),bc,,sphere,120,2 minutes,Large round silver UFO in Peace River Valley 1966-67,2/18/2001,56.0316,-121.9057
10/1/1967 20:00,minneapolis,mn,us,disk,10,10 seconds,In October 1967&#44 2 Disks sited heading north over Minneapolis MN.,4/16/2005,44.98,-93.2636
10/1/1968 0:00,boston,ma,us,cigar,1200,20 minutes,as i woke up in the early morning a bright redish orange light bathed the living room&#44at first i thought it was a fire but the light wa,12/16/2005,42.3583,-71.0603
10/1/1968 20:00,kennebunkport,me,us,circle,600,5-10 minutes,While at the boathouse at St.Athonys one night we noticed what at first we thought was a bright star getting larger.It seemed to dart a,3/19/2002,43.3617,-70.4772
10/1/1969 16:00,san francisco,ca,us,oval,600,5-10 min,It was in the afternoon just before sunset at 20 Steiner St SF CA I saw above me and there was one other person who was with me on the,8/30/1999,37.775,-122.4183
10/1/1970 0:00,viet nam,,,light,600,5/10 minutes,U.F.O. in Vietnam    1970,6/4/2004,14.0583,108.2772
10/1/1970 1:00,kingston (canada),on,ca,sphere,180,3 minutes,Sept. 1970. Kingston Ontario. Spherical grren orb. 3 minute duration. Bright green orb travelled slowly and then took off extremely qui,10/11/2005,44.2333,-76.4833
10/1/1970 16:00,new york city (brooklyn),ny,us,disk,180,3 minutes,Hoovering disk like object by Father and Son&#44 Brookyln&#44 NY 1970,1/21/2008,40.7142,-74.0064
10/1/1970 17:30,bentonville,ar,us,other,14400,about 4 hours,Hoseshoe shaped,12/7/2006,36.3728,-94.2086
10/1/1970 19:00,summit lake indian reservation,nv,,oval,1500,25min.,ball of light&#44 turned into a doughnut shape&#44 assention&#44 stream&#44 4 witnesses&#44seen from higher elevation.,8/11/2004,41.5249,-119.051
10/1/1970 19:00,tampa,fl,us,other,900,15 minutes,36 year old reports an object he saw with his mother 31 years ago.,8/20/2001,27.9472,-82.4586
10/1/1970 21:00,new york city (brooklyn),ny,us,disk,300,5 mins,Saucer/disklike craft&#44 with multi-colored lights sighted in Bayridge Brooklyn in 1970 with many eyewitnesses.,2/18/2001,40.7142,-74.0064
10/1/1970 23:00,indian ocean (usn vessel),,,light,240,3-4 minutes,Bright object seemingly appeared out of nowhere in the Indian Ocean&#44 miles from any land.,7/8/2004,-33.1376,81.8262
10/1/1971 22:00,pasadena,ca,us,disk,180,3 min,Powerless over UFO sighting.,1/17/2004,34.1478,-118.1436
10/1/1972 1:00,potwin,ks,us,unknown,10800,2-3 hours,Iwas abducted around age 7 or 8. They came will I WAS Asleep. they look into my room from the hall. They took me to a room. I think the,5/24/1999,37.9389,-97.0194
10/1/1972 4:00,denton,tx,us,unknown,600,less than 10 minutes but,Slow moving object splits and one part sped away while the bigger part slowly moved in the opposite direction.,1/31/2011,33.2147,-97.1328
10/1/1972 20:00,mosheim,tx,us,disk,1800,20-30 minutes,Classic saucer shape seen in the early seventies.,4/9/2004,31.6261,-97.5997
10/1/1972 23:00,monroe,wa,us,rectangle,900,15 min,STOP AND GO THE SIZE OF A LARG CAR WITH NO WINDOWS,1/3/2001,47.8556,-121.9697
10/1/1972 23:00,pickens/pumpkintown,sc,,chevron,1800,30+ minutes,Slowly moving boomerang shape with four bluish-white lights on each leading edge; made a humming sound.,8/5/2001,35.0028,-82.6528
10/1/1973 1:00,montezuma,in,us,sphere,900,15 minutes,We saw a large glowing sphere that looked like the moon&#44 but was obviously not since it was very close to us and could manuver.,9/2/2005,39.7928,-87.3708
10/1/1973 15:00,virginia beach,va,us,disk,1800,10-30 minutes,Group of  friends an I  follow a UFO on bicycles&#44 I have a sighting alone about a week later.,10/10/2011,36.8528,-75.9783
10/1/1973 20:00,bloomington,in,us,light,1200,20 minutes,Three large bright white craft  interacting &amp; manuevering rapidly accross a quadrant of night sky.,7/3/2013,39.1653,-86.5264
10/1/1973 20:30,north st. paul,mn,,triangle,120,two minutes,Large triangular space craft sighted above North Senior High School&#39 football field&#44 in North St. Paul&#44 MN in early October 1&#44 1973,7/30/2002,45.0125,-92.9919
10/1/1973 21:00,roseburg,or,us,cylinder,7200,not sure&#44maybe 2 hours,We were on the outskirts of town&#44 just passing the sewage treatment plant&#44 when this object with blinding white light enveloped the car,8/12/2008,43.2167,-123.3406
10/1/1973 21:30,beatty,nv,us,disk,7200,2 hours,Lights in the sky and lost time.,10/10/2011,36.9086,-116.7583
10/1/1973 21:30,hixson,tn,us,oval,37800,1 1/2 hours,Oval&#44 brilliant lights&#44 red glow&#44 windows&#44 metallic&#44 no sound; After we lost sight of it and went to find it&#44 it showed itself to us.,4/16/2005,35.1406,-85.2328
10/1/1973 22:45,valley city,oh,us,disk,300,5 minutes,It was a star shaped object travelling south that stopped&#44 changed colors&#44 and sped off dissapearing in the night sky.,1/11/2002,41.2378,-81.9317
10/1/1974 1:00,denton,tx,us,unknown,600,10 min,I was walking home from the Library at North Texas State University after the Library closed.  From a distance&#44 I saw a large red glowi,6/12/2008,33.2147,-97.1328
10/1/1974 18:00,weirton,wv,us,sphere,240,4 minutes,Upon coming home one evening in the early spring&#44 I saw in the eastern horizon three circular objects that looked like three full mooon,1/7/2000,40.4189,-80.5897
10/1/1974 20:00,ankara (turkey),,,changing,300,5 min.,A bright&#44 huge&#44 and shape-changing object&#44 exploded into numerous smaller spherical objects which moved in formation.,8/7/2007,39.9208,32.8541
10/1/1974 20:00,deerwood,mn,us,unknown,2,2 seconds,Sighting 3  An incidence occurred in mid-October&#44 1974. I picked my son up from wrestling practice in the evening after school. We live,12/7/2006,46.4736,-93.8986
10/1/1974 21:00,chester,nj,us,light,600,10 minutes,Three bright star like objects moving across the night sky at the speed of light and stopping on a dime.,12/7/2006,40.7842,-74.6972
10/1/1975 21:00,kincheloe air force base&#44 michigan,mi,,triangle,15,15 seconds,Shaped like the letter &quot;A&quot;&#44 flew directly over top of us at est 500 ft.,2/16/2000,44.3148,-85.6024
10/1/1975 22:00,maricopa,az,us,changing,1200,20 min,Group of 4 Orange Objects land near hills just west of small town of Maricopa Arizona... Oct&#44 1975,1/21/2008,33.0581,-112.0469
10/1/1976 7:00,hartville,oh,us,disk,120,2 minutes or less,A disk shaped flying object followed the path of our car just above the telephone lines.,1/11/2002,40.9636,-81.3314
10/1/1976 19:00,fairport,ny,us,disk,600,10 minutes,Disk shaped UFO with continous changing color band in the middle.  Hoovered for a few minutes about 3 stories off the ground above a cr,3/2/2004,43.0986,-77.4422
10/1/1976 21:00,thonotosassa,fl,us,disk,900,15 minutes,Mid-1970&#39s Thonotosassa&#44 Florida sighting at Stacey and Knights Griffin,10/30/2006,28.0611,-82.3025
10/1/1977 1:00,iselton,ca,,light,120,2 minutes,While fishing on the San Joaquin river on Twithchell Island Rd.&#44 at the mouth of the Molklomne river&#44 we observed 2-lights high in the,7/13/2005,38.1619,-121.6116
10/1/1977 19:00,fountain valley,ca,us,other,360,6 minutes,My brother&#44 his friend and I saw an orange pyramid-shaped object in the sky about 25 yards away from us and about 25 yards up.  We were,8/30/1999,33.7092,-117.9528
10/1/1977 22:00,ferndale,ca,us,other,60,1 minute,Silhouette&#44 or dark object of craft appeared on moonless&#44 starlit-night&#44 backlit by glow straight overhead&#44 appeared to be approaching,4/16/2005,40.5764,-124.2628
10/1/1978 0:00,windsor,nc,us,cone,300,5min,saw while parking with girl friend. rising full moonin back ground. 25 ft up. f 50 yrs away over field. hovering. completly silent. one,8/28/2003,35.9983,-76.9464
10/1/1978 20:00,lecompte,la,us,disk,300,5 minutes,I believe this object was either a test vehicle of some sort or it was not of this world.,12/23/2002,31.0944,-92.4003
10/1/1978 23:15,francesville,in,us,cylinder,900,approx. 15 min,Object hovered for apprx. 5 min. then proceeded west - it was apprx. 300&#39 long 50-75&#39 wide 50-75&#39 high w/lights.,7/16/2006,40.9853,-86.8794
10/1/1979 16:00,lomita,ca,us,disk,1200,20 minutes,Silent disk in afternoon daylight with over twenty witnesses,7/5/2008,33.7922,-118.3142
10/1/1979 19:00,columbia,md,us,rectangle,120,2 minutes,Large&#44 low-flying&#44 slow moving&#44 silent black rectangle with no lights,2/4/2013,39.2403,-76.8397
10/1/1979 21:00,buffalo,ny,us,light,10,5-10 sec,Two bright fast-moving star-like objects with one traveling in a zig-zag motion.,4/16/2005,42.8864,-78.8786
10/1/1979 21:00,olympia,wa,us,disk,7200,2 hours,Dancing lights over Olympia,7/5/2008,47.0381,-122.8994
10/1/1979 21:00,pittsburgh,pa,us,disk,300,5 min,Disk appeared over stadium at end of game... spun like a coin on a table...game ended ... never heard a thing about it.,2/16/2000,40.4406,-79.9961
10/1/1979 23:00,cranbury,nj,us,light,240,4 minutes,8 UFOs in a circle suddenly take off radially away from each other.,10/23/2013,40.3161,-74.5142
10/1/1980 1:30,fremont,ca,us,other,30,30 seconds,A heavy rain night off work and was amazed how heavy it was raining&#44 awake and looking out thru my skylight. Suddenly bright overwhelmi,8/5/2001,37.5483,-121.9875
10/1/1980 20:00,mountainboro,al,us,fireball,20,20 seconds,Ball of Fire that changed into a cone shape.,7/4/2012,34.1469,-86.1306
10/1/1980 21:00,shirleysburg,pa,us,formation,600,10 minutes,Sometime during the late 1970-s and early 1980&#8217;s&#44 I can&#8217;t remember the time of the year.   I was in my home in rural Shirleysburg&#44 PA.,5/13/2012,40.2978,-77.8744
10/1/1980 22:00,jersey city,nj,us,cigar,180,2-3 minutes,Blimp shaped object with extremely bright lights hovered then rapidly dashed into the night&#39s sky.,10/20/2005,40.7281,-74.0781
10/1/1981 20:00,hesperia,mi,us,oval,2400,40 minutes,Two people in car see green oval object and lost time,1/10/2009,43.5689,-86.0394
10/1/1981 20:00,mt. sterling,ky,,disk,2400,one hour or more,Close up view of UFO after unexplained loss of time. 500 Lights On Object0: Yes,8/5/2012,38.0565,-83.9433
10/1/1982 22:10,swartz creek,mi,us,fireball,240,3 to 4 minutes,blazing sphere across the southern sky from 1982,3/21/2003,42.9572,-83.8306
10/1/1983 17:00,birmingham (uk/england),,gb,sphere,97836000,31 years,Firstly&#44 I was stunned and stared at the object for what seemed minutes&#44 but probably was only seconds. My first inclination was to bec,4/12/2013,52.4667,-1.9167
10/1/1983 20:00,ayer,ma,us,unknown,20,20 seconds,Zero to top Speed Instantaneously,5/12/2009,42.5611,-71.5903
10/1/1983 20:30,elizabeth township,pa,,oval,720,12minutes,My friend and I saw eight oval crafts with lights performing very unusal manuvers,5/15/2006,40.2566,-79.8185
10/1/1983 21:00,tarboro,nc,us,disk,180,3 minutes,it was as large as our house...and silent enough no one inside heard a thing...nor did i,9/9/2003,35.8967,-77.5361
10/1/1984 1:00,waldport,or,us,light,600,10 minutes,Bright light of a  fast moving craft frightened me in the night on the Oregon Coast.,3/16/2001,44.4269,-124.0675
10/1/1984 20:00,chatsworth,ca,us,light,45,45 seconds,Light approaches at high rate of speed and makes a ninety degree turn.,2/24/2007,34.2572,-118.6003
10/1/1984 21:00,acton,me,us,triangle,180,3 min.,Silent&#44 very large&#44 one white headlight&#44 red lights around edges,4/2/1999,43.5342,-70.9103
10/1/1985 0:00,brandon,fl,us,triangle,900,15 min,triangle SHIP 60 to 80 feet high&#44SPEED 3 TO 5 MPH&#44I SAW IT ALL&#44....................,2/24/2007,27.9375,-82.2861
10/1/1985 5:30,holton,mi,us,light,240,3-4 minutes,Unknown light makes 90 degree turn and disappears.,5/11/2005,43.4133,-86.0794
10/1/1985 5:30,monroe,nc,us,sphere,300,5 min,Years ago&#44 my husband&#39s aunt and I witnessed something very strange on the way to work early one morning. It was about 5:30am and we we,11/28/2007,34.9853,-80.5497
10/1/1985 21:30,jefferson,oh,us,triangle,3600,1 hour,Three lights&#44possibly single or part of object hovered over treeline changing color&#44and shape.,12/2/2000,41.7386,-80.77
10/1/1985 21:30,santa margarita/atascadero (between&#44 hwy 101),ca,,other,120,2 &#33/2  min.,we were driving north on hwy 101 from san luis obispo to atascadero&#44 when from the west came a &quot;ufo&quot; traveling east&#44 passing over the h,6/23/1999,35.4233,-120.6188
10/1/1985 22:45,lawrence,ks,us,sphere,300,< 5 minutes,Red Light seen in Lawrence&#44 Kansas&#44 during Johnny Carson&#39s Monologue,1/10/2009,38.9717,-95.235
10/1/1986 1:00,klamath falls,or,us,circle,2700,45 minutes,BRIGHT OBJECT DROPPING &quot;FIRECRACKERS&quot; FROM IT - IT SEEMED TO KNOW I COULD SEE IT - VANISHED IN A TYPE OF EXPLOSION,4/27/2004,42.225,-121.7806
10/1/1986 22:00,n. ridgeville,oh,,triangle,300,5 minutes,Black triangular craft with green lights hovering over the tree tops,12/16/2005,41.3895,-82.01899999999999
10/1/1986 22:00,wheeling,wv,us,light,10,10 seconds,Missing time after seeing something that looked like the Northern lights.,1/11/2002,40.0639,-80.7211
10/1/1987 1:00,west palm beach,fl,us,,10,one hour,An &quot;out of the body&quot; experience,2/18/2001,26.7053,-80.0367
10/1/1987 19:00,victoria (canada),bc,ca,sphere,900,15mins,Large red and orange sphere&#44 balanced on a rock in 1987.,10/30/2006,46.2167,-63.4833
10/1/1987 20:00,roseburg (7 miles northwest of),or,us,oval,1800,30 mins.,Two small glowing oval orange objects and one larger triangle craft in rural Oregon.,10/31/2008,43.2167,-123.3406
10/1/1987 21:00,alstead,nh,us,fireball,1800,30 mins.,sitting   in  a  car in a open  field&#44 keeping in mind this is in a  town where  we are in  the hills.  the  field during  the day has,1/19/2005,43.1489,-72.3611
10/1/1987 23:00,louisburg,nc,us,triangle,180,3 minutes,Large black triangular object with lights on each side and at the points making no discernible noise.,8/5/2001,36.0989,-78.3014
10/1/1989 16:00,mackay,id,us,disk,180,2 to 3 min,LARGE SAUCER,2/14/2010,43.9147,-113.6125
10/1/1989 18:00,winchester (near),ky,us,oval,300,5 minutes,3 starlike objects land on 1 large orange oval object in full daylight in sight of dozens of witnesses.,3/11/2006,37.99,-84.1797
10/1/1989 20:00,jacksonville,il,us,circle,300,five minutes,Three gold circle UFOs fly in formation&#44 warp drive away and disappear.,11/21/2010,39.7339,-90.2289
10/1/1989 20:00,pawling,ny,us,oval,300,5 minutes,Large oval craft with lights above house on north side of Route 55 between Pawling and Freedom Plains&#44 NY&#44 late 1980&#39s.,5/11/2005,41.5619,-73.6031
10/1/1989 21:30,carmichael,ca,us,rectangle,10,10sec.,Black rectangular craft over carmichael.,7/25/2004,38.6172,-121.3272
10/1/1989 21:30,orono,me,us,disk,20,15-20 seconds,Silent Lo-flying Craft with Dome and Bright White Lights,11/26/2003,44.8831,-68.6725
10/1/1990 17:00,pateros,wa,us,oval,300,05min,One Gray metal oval disc&#44 aporx. 10&#39x50&#39&#44 clear sky&#44  1 qaurter mile away,3/11/2006,48.0511,-119.9022
10/1/1990 20:00,san pedro,ca,us,light,120,2min,a small light in the sky&#44 making the shape of a equiangular triangle then shooting away at a high rate of speed.,1/19/2005,33.7358,-118.2914
10/1/1990 22:15,jamestown,ny,us,light,1200,20 minutes,A row of porthole shaped lights hovering at an altitude of approx. 500 feet spanning a distance of about 1 mile.,4/27/2007,42.0969,-79.2356
10/1/1991 14:45,easley,sc,us,other,900,fifteen minutes,Hockey-puck-shaped-thing.,2/22/2002,34.8297,-82.6017
10/1/1991 17:00,wilmington,ca,us,circle,900,15 minutes,Patterned disks over southern california sky.,2/14/2008,33.78,-118.2617
10/1/1991 18:00,maryville,tn,us,cigar,300,5 minutes,Silver&#44 cigar shaped object north of downtown Maryville&#44 TN in or around 1991,9/24/2012,35.7564,-83.9706
